$PQTMVERNO,LC29HAANR11A03S,2023/12/14,10:12:35*34
$GNRMC,082444.000,A,5159.913540,N,00422.397118,E,0.38,309.34,160925,,,D,V*0D
$GNVTG,309.34,T,,M,0.38,N,0.70,K,D*27
$GNGGA,082444.000,5159.913540,N,00422.397118,E,2,24,1.16,32.424,M,47.111,M,,*4D
$GNGSA,A,3,19,01,17,06,09,04,,,,,,,1.48,1.16,0.92,1*05
$GNGSA,A,3,66,81,88,87,,,,,,,,,1.48,1.16,0.92,2*04
$GNGSA,A,3,15,08,,,,,,,,,,,1.48,1.16,0.92,3*0F
$GNGSA,A,3,19,35,29,,,,,,,,,,1.48,1.16,0.92,4*01
$GPGSV,4,1,13,03,66,071,,19,41,269,19,01,38,138,20,17,37,239,16,1*61
$GPGSV,4,2,13,06,36,305,15,09,33,208,36,34,29,191,33,04,67,164,21,1*67
$GPGSV,4,3,13,31,27,068,,28,17,038,,02,10,141,15,12,04,334,,1*6F
$GPGSV,4,4,13,25,02,001,,1*52
$GPGSV,1,1,04,01,38,138,25,04,67,164,26,06,36,305,17,09,33,208,21,8*6F
$GLGSV,2,1,07,66,27,231,26,72,40,045,,81,37,321,17,88,74,213,18,1*7C
$GLGSV,2,2,07,87,17,157,27,73,14,026,,80,04,335,,1*4C
$GAGSV,3,1,09,26,05,306,,15,66,140,18,03,66,098,,13,55,300,18,7*7E
$GAGSV,3,2,09,08,41,192,28,05,23,047,,34,15,130,15,23,07,321,11,7*72
$GAGSV,3,3,09,31,03,007,,7*4C
$GAGSV,1,1,02,08,41,192,22,15,66,140,18,1*78
$GBGSV,4,1,15,48,,,17,19,56,237,18,35,52,279,19,29,38,186,26,1*47
$GBGSV,4,2,15,09,30,076,,06,29,062,,16,27,052,,44,17,318,14,1*7A
$GBGSV,4,3,15,05,15,118,,32,14,061,,23,10,046,,37,06,092,,1*74
$GBGSV,4,4,15,22,05,240,18,25,01,002,,20,70,065,,1*4A
$GBGSV,1,1,04,19,56,237,15,35,52,279,20,29,38,186,25,48,,,23,5*45
$GNGLL,5159.913540,N,00422.397118,E,082444.000,A,D*4F
$GNRMC,082445.000,A,5159.913834,N,00422.397268,E,0.45,309.34,160925,,,D,V*0C
$GNVTG,309.34,T,,M,0.45,N,0.84,K,D*26
$GNGGA,082445.000,5159.913834,N,00422.397268,E,2,25,1.01,32.431,M,47.111,M,,*45
$GNGSA,A,3,01,17,06,09,04,02,,,,,,,1.29,1.01,0.80,1*0D
$GNGSA,A,3,66,81,88,87,,,,,,,,,1.29,1.01,0.80,2*06
$GNGSA,A,3,15,08,23,,,,,,,,,,1.29,1.01,0.80,3*0C
$GNGSA,A,3,19,35,29,,,,,,,,,,1.29,1.01,0.80,4*03
$GPGSV,4,1,13,03,66,071,,19,41,269,19,01,38,138,20,17,37,239,16,1*61
$GPGSV,4,2,13,06,36,305,16,09,33,208,36,34,29,191,33,04,67,164,21,1*64
$GPGSV,4,3,13,31,27,068,,28,17,038,,02,10,141,14,12,04,334,,1*6E
$GPGSV,4,4,13,25,02,001,,1*52
$GPGSV,1,1,04,01,38,138,25,04,67,164,26,06,36,305,17,09,33,208,20,8*6E
$GLGSV,2,1,07,66,27,231,26,72,40,045,,81,37,321,17,88,74,213,18,1*7C
$GLGSV,2,2,07,87,17,157,27,73,14,026,,80,04,335,,1*4C
$GAGSV,3,1,09,26,05,306,,15,66,140,18,03,66,098,,13,55,300,18,7*7E
$GAGSV,3,2,09,08,41,192,28,05,23,047,,34,15,130,15,23,07,321,11,7*72
$GAGSV,3,3,09,31,03,007,,7*4C
$GAGSV,1,1,02,08,41,192,23,15,66,140,18,1*79
$GBGSV,4,1,15,48,,,17,19,56,237,18,35,52,279,20,29,38,186,26,1*4D
$GBGSV,4,2,15,09,30,076,,06,29,062,,16,27,052,,44,17,318,14,1*7A
$GBGSV,4,3,15,05,15,118,,32,14,061,,23,10,046,,37,06,092,,1*74
$GBGSV,4,4,15,22,05,240,18,25,01,002,,20,70,065,,1*4A
$GBGSV,1,1,04,19,56,237,15,35,52,279,20,29,38,186,25,48,,,23,5*45
$GNGLL,5159.913834,N,00422.397268,E,082445.000,A,D*44
$GNRMC,082446.000,A,5159.913984,N,00422.397376,E,0.50,309.34,160925,,,D,V*0F
$GNVTG,309.34,T,,M,0.50,N,0.93,K,D*24
$GNGGA,082446.000,5159.913984,N,00422.397376,E,2,24,1.00,32.447,M,47.111,M,,*43
$GNGSA,A,3,19,01,17,06,09,04,02,,,,,,1.28,1.00,0.80,1*05
$GNGSA,A,3,66,81,88,,,,,,,,,,1.28,1.00,0.80,2*09
$GNGSA,A,3,15,08,,,,,,,,,,,1.28,1.00,0.80,3*0D
$GNGSA,A,3,19,35,29,,,,,,,,,,1.28,1.00,0.80,4*03
$GPGSV,4,1,13,03,66,071,,19,41,269,20,01,38,138,20,17,37,239,17,1*6A
$GPGSV,4,2,13,06,36,305,16,09,33,208,36,34,29,191,33,04,67,164,21,1*64
$GPGSV,4,3,13,31,27,068,,28,17,038,,02,10,141,13,12,04,334,,1*69
$GPGSV,4,4,13,25,02,001,,1*52
$GPGSV,1,1,04,01,38,138,25,04,67,164,26,06,36,305,16,09,33,208,19,8*65
$GLGSV,2,1,07,66,27,231,26,72,40,045,,81,37,321,15,88,74,213,18,1*7E
$GLGSV,2,2,07,87,17,157,27,73,14,026,,80,04,335,,1*4C
$GAGSV,3,1,09,26,05,306,,15,66,140,18,03,66,098,,13,55,300,18,7*7E
$GAGSV,3,2,09,08,41,192,28,05,23,047,,34,15,130,15,23,07,321,11,7*72
$GAGSV,3,3,09,31,03,007,,7*4C
$GAGSV,1,1,02,08,41,192,22,15,66,140,18,1*78
$GBGSV,4,1,15,48,,,16,19,56,237,18,35,52,279,20,29,38,186,26,1*4C
$GBGSV,4,2,15,09,30,076,,06,29,061,,16,27,052,,44,17,318,14,1*79
$GBGSV,4,3,15,05,15,118,,32,14,061,,23,10,046,,37,06,092,,1*74
$GBGSV,4,4,15,22,05,240,17,25,01,002,,20,70,065,,1*45
$GBGSV,1,1,04,19,56,237,14,35,52,279,20,29,38,186,24,48,,,22,5*44
$GNGLL,5159.913984,N,00422.397376,E,082446.000,A,D*43
$GNRMC,082447.000,A,5159.914044,N,00422.397394,E,0.46,309.34,160925,,,D,V*07
$GNVTG,309.34,T,,M,0.46,N,0.86,K,D*27
$GNGGA,082447.000,5159.914044,N,00422.397394,E,2,25,1.00,32.495,M,47.111,M,,*42
$GNGSA,A,3,19,01,17,06,09,04,02,,,,,,1.28,1.00,0.80,1*05
$GNGSA,A,3,66,81,88,,,,,,,,,,1.28,1.00,0.80,2*09
$GNGSA,A,3,15,08,23,,,,,,,,,,1.28,1.00,0.80,3*0C
$GNGSA,A,3,19,35,29,,,,,,,,,,1.28,1.00,0.80,4*03
$GPGSV,4,1,13,03,66,071,,19,41,269,20,01,38,138,20,17,37,239,18,1*65
$GPGSV,4,2,13,06,36,305,17,09,33,208,36,34,29,191,33,04,67,164,20,1*64
$GPGSV,4,3,13,31,27,068,,28,17,038,,02,10,141,14,12,04,334,,1*6E
$GPGSV,4,4,13,25,02,001,,1*52
$GPGSV,1,1,04,01,38,138,25,04,67,164,26,06,36,305,16,09,33,208,21,8*6E
$GLGSV,2,1,07,66,27,231,25,72,40,045,,81,37,321,16,88,74,213,18,1*7E
$GLGSV,2,2,07,87,17,157,28,73,14,026,,80,04,335,,1*43
$GAGSV,3,1,09,26,05,306,,15,66,140,19,03,66,098,,13,55,300,18,7*7F
$GAGSV,3,2,09,08,41,192,28,05,23,047,,34,15,130,14,23,07,321,12,7*70
$GAGSV,3,3,09,31,03,007,,7*4C
$GAGSV,1,1,02,08,41,192,25,15,66,140,18,1*7F
$GBGSV,4,1,15,48,,,16,19,56,237,17,35,52,279,21,29,38,186,26,1*42
$GBGSV,4,2,15,09,30,076,,06,29,061,,16,27,052,,44,17,318,14,1*79
$GBGSV,4,3,15,05,15,118,,32,14,061,,23,10,046,,37,06,092,,1*74
$GBGSV,4,4,15,22,05,240,17,25,01,002,,20,70,065,,1*45
$GBGSV,1,1,04,19,56,237,15,35,52,279,20,29,38,186,23,48,,,22,5*42
$GNGLL,5159.914044,N,00422.397394,E,082447.000,A,D*4C
$GNRMC,082448.000,A,5159.914158,N,00422.397478,E,0.40,309.34,160925,,,D,V*07
$GNVTG,309.34,T,,M,0.40,N,0.74,K,D*2C
$GNGGA,082448.000,5159.914158,N,00422.397478,E,2,24,1.01,32.517,M,47.111,M,,*4F
$GNGSA,A,3,01,17,06,09,04,02,,,,,,,1.29,1.01,0.80,1*0D
$GNGSA,A,3,66,81,88,87,,,,,,,,,1.29,1.01,0.80,2*06
$GNGSA,A,3,15,08,,,,,,,,,,,1.29,1.01,0.80,3*0D
$GNGSA,A,3,19,35,29,,,,,,,,,,1.29,1.01,0.80,4*03
$GPGSV,4,1,13,03,66,071,,19,41,269,20,01,38,138,20,17,37,239,18,1*65
$GPGSV,4,2,13,06,36,305,17,09,33,208,36,34,29,191,34,04,67,164,20,1*63
$GPGSV,4,3,13,31,27,068,,28,17,038,,02,10,141,15,12,04,334,,1*6F
$GPGSV,4,4,13,25,02,001,,1*52
$GPGSV,1,1,04,01,38,138,25,04,67,164,26,06,36,305,16,09,33,208,23,8*6C
$GLGSV,2,1,07,66,27,231,24,72,40,045,,81,37,321,16,88,74,213,18,1*7F
$GLGSV,2,2,07,87,17,157,28,73,14,026,,80,04,335,,1*43
$GAGSV,3,1,09,26,05,306,,15,66,140,20,03,66,098,,13,55,300,18,7*75
$GAGSV,3,2,09,08,41,192,28,05,23,047,,34,15,130,14,23,07,321,12,7*70
$GAGSV,3,3,09,31,03,007,,7*4C
$GAGSV,1,1,02,08,41,192,25,15,66,140,18,1*7F
$GBGSV,4,1,15,48,,,16,19,56,237,17,35,52,279,21,29,38,186,26,1*42
$GBGSV,4,2,15,09,30,076,,06,29,061,,16,27,052,,44,17,318,14,1*79
$GBGSV,4,3,15,05,15,118,,32,14,061,,23,10,046,,37,06,092,,1*74
$GBGSV,4,4,15,22,05,240,17,25,01,002,,20,70,065,,1*45
$GBGSV,1,1,04,19,56,237,16,35,52,279,20,29,38,186,23,48,,,22,5*41
$GNGLL,5159.914158,N,00422.397478,E,082448.000,A,D*4A
$GNRMC,082449.000,A,5159.914548,N,00422.397646,E,0.38,309.34,160925,,,D,V*03
$GNVTG,309.34,T,,M,0.38,N,0.71,K,D*26
$GNGGA,082449.000,5159.914548,N,00422.397646,E,2,22,1.10,32.499,M,47.111,M,,*45
$GNGSA,A,3,19,01,17,06,09,04,,,,,,,1.43,1.10,0.92,1*08
$GNGSA,A,3,66,81,,,,,,,,,,,1.43,1.10,0.92,2*06
$GNGSA,A,3,15,08,,,,,,,,,,,1.43,1.10,0.92,3*02
$GNGSA,A,3,19,35,29,,,,,,,,,,1.43,1.10,0.92,4*0C
$GPGSV,4,1,13,03,66,071,,19,41,269,20,01,38,138,19,17,37,239,18,1*6F
$GPGSV,4,2,13,06,36,305,17,09,33,208,35,34,29,191,34,04,67,164,20,1*60
$GPGSV,4,3,13,31,27,068,,28,17,038,,02,10,141,14,12,04,334,,1*6E
$GPGSV,4,4,13,25,02,001,,1*52
$GPGSV,1,1,04,01,38,138,26,04,67,164,26,06,36,305,16,09,33,208,24,8*68
$GLGSV,2,1,07,66,27,231,23,72,40,045,,81,37,321,17,88,74,213,18,1*79
$GLGSV,2,2,07,87,17,157,27,73,14,026,,80,04,335,,1*4C
$GAGSV,3,1,09,26,05,306,,15,66,140,21,03,66,098,,13,55,300,18,7*74
$GAGSV,3,2,09,08,41,192,28,05,23,047,,34,15,130,13,23,07,321,12,7*77
$GAGSV,3,3,09,31,03,007,,7*4C
$GAGSV,1,1,02,08,41,192,25,15,66,140,18,1*7F
$GBGSV,4,1,15,48,,,16,19,56,237,17,35,52,279,21,29,38,186,26,1*42
$GBGSV,4,2,15,09,30,076,,06,29,061,,16,27,052,,44,17,318,14,1*79
$GBGSV,4,3,15,05,15,118,,32,14,061,,23,10,046,,37,06,092,,1*74
$GBGSV,4,4,15,22,05,240,17,25,01,002,,20,70,065,,1*45
$GBGSV,1,1,04,19,56,237,17,35,52,279,20,29,38,186,23,48,,,22,5*40
$GNGLL,5159.914548,N,00422.397646,E,082449.000,A,D*41
$GNRMC,082450.000,A,5159.914836,N,00422.397748,E,0.22,309.34,160925,,,D,V*0B
$GNVTG,309.34,T,,M,0.22,N,0.40,K,D*2F
$GNGGA,082450.000,5159.914836,N,00422.397748,E,2,24,1.24,32.553,M,47.111,M,,*40
$GNGSA,A,3,19,01,17,06,09,04,,,,,,,1.54,1.24,0.91,1*0A
$GNGSA,A,3,66,88,87,,,,,,,,,,1.54,1.24,0.91,2*02
$GNGSA,A,3,15,08,23,,,,,,,,,,1.54,1.24,0.91,3*01
$GNGSA,A,3,19,35,29,,,,,,,,,,1.54,1.24,0.91,4*0E
$GPGSV,4,1,13,03,66,071,,19,41,269,20,01,38,138,21,17,37,239,18,1*64
$GPGSV,4,2,13,06,36,305,16,09,33,208,33,34,29,191,34,04,67,164,20,1*67
$GPGSV,4,3,13,31,27,068,,28,17,038,,02,10,141,13,12,04,334,,1*69
$GPGSV,4,4,13,25,02,001,,1*52
$GPGSV,1,1,04,01,38,138,26,04,67,164,25,06,36,305,16,09,33,208,25,8*6A
$GLGSV,2,1,07,66,27,231,24,72,40,045,,81,37,321,17,88,74,213,18,1*7E
$GLGSV,2,2,07,87,17,157,26,73,14,026,,80,04,335,,1*4D
$GAGSV,3,1,09,26,05,306,,15,66,140,21,03,66,098,,13,55,300,18,7*74
$GAGSV,3,2,09,08,41,192,28,05,23,047,,34,15,130,13,23,07,321,11,7*74
$GAGSV,3,3,09,31,03,007,,7*4C
$GAGSV,1,1,02,08,41,192,25,15,66,140,18,1*7F
$GBGSV,4,1,15,48,,,16,19,56,237,17,35,52,279,21,29,38,186,25,1*41
$GBGSV,4,2,15,09,30,076,,06,29,061,,16,27,052,,44,17,318,14,1*79
$GBGSV,4,3,15,05,15,118,,32,14,061,,23,10,046,,37,06,092,,1*74
$GBGSV,4,4,15,22,05,240,17,25,01,002,,20,70,065,,1*45
$GBGSV,1,1,04,19,56,237,13,35,52,279,19,29,38,186,22,48,,,21,5*4C
$GNGLL,5159.914836,N,00422.397748,E,082450.000,A,D*42
$GNRMC,082451.000,A,5159.914788,N,00422.397736,E,0.41,309.34,160925,,,D,V*0C
$GNVTG,309.34,T,,M,0.41,N,0.75,K,D*2C
$GNGGA,082451.000,5159.914788,N,00422.397736,E,2,21,1.30,32.497,M,47.111,M,,*4B
$GNGSA,A,3,01,06,09,04,,,,,,,,,1.60,1.30,0.93,1*04
$GNGSA,A,3,66,81,88,,,,,,,,,,1.60,1.30,0.93,2*04
$GNGSA,A,3,15,08,,,,,,,,,,,1.60,1.30,0.93,3*00
$GNGSA,A,3,19,35,29,,,,,,,,,,1.60,1.30,0.93,4*0E
$GPGSV,4,1,13,03,66,071,,19,41,269,19,01,38,138,29,17,37,239,19,1*67
$GPGSV,4,2,13,06,36,305,16,09,33,208,32,34,29,191,34,04,67,164,19,1*6C
$GPGSV,4,3,13,31,27,068,,28,17,038,,02,10,141,15,12,04,334,,1*6F
$GPGSV,4,4,13,25,02,001,,1*52
$GPGSV,1,1,04,01,38,138,26,04,67,164,25,06,36,305,16,09,33,208,26,8*69
$GLGSV,2,1,07,66,27,231,25,72,40,045,,81,37,321,18,88,74,213,18,1*70
$GLGSV,2,2,07,87,17,157,26,73,14,026,,80,04,335,,1*4D
$GAGSV,3,1,09,26,05,306,,15,66,140,22,03,66,098,,13,55,300,18,7*77
$GAGSV,3,2,09,08,41,192,28,05,23,047,,34,15,130,13,23,07,321,10,7*75
$GAGSV,3,3,09,31,03,007,,7*4C
$GAGSV,1,1,02,08,41,192,25,15,66,140,19,1*7E
$GBGSV,4,1,15,48,,,16,19,56,237,18,35,52,279,21,29,38,186,24,1*4F
$GBGSV,4,2,15,09,30,076,,06,29,061,,16,27,052,,44,17,318,13,1*7E
$GBGSV,4,3,15,05,15,118,,32,14,061,,23,10,046,,37,06,092,,1*74
$GBGSV,4,4,15,22,05,240,17,25,01,002,,20,70,065,,1*45
$GBGSV,1,1,04,19,56,237,17,35,52,279,20,29,38,186,23,48,,,21,5*43
$GNGLL,5159.914788,N,00422.397736,E,082451.000,A,D*40
$GNRMC,082452.000,A,5159.914914,N,00422.397796,E,0.45,309.34,160925,,,D,V*0A
$GNVTG,309.34,T,,M,0.45,N,0.84,K,D*26
$GNGGA,082452.000,5159.914914,N,00422.397796,E,2,21,1.30,32.382,M,47.111,M,,*4A
$GNGSA,A,3,01,17,06,09,04,,,,,,,,1.60,1.30,0.93,1*02
$GNGSA,A,3,66,87,,,,,,,,,,,1.60,1.30,0.93,2*02
$GNGSA,A,3,15,08,,,,,,,,,,,1.60,1.30,0.93,3*00
$GNGSA,A,3,19,35,29,,,,,,,,,,1.60,1.30,0.93,4*0E
$GPGSV,4,1,13,03,66,071,,19,41,269,18,01,38,138,29,17,37,239,19,1*66
$GPGSV,4,2,13,06,36,305,16,09,33,208,31,04,67,164,18,34,29,191,34,1*6E
$GPGSV,4,3,13,31,27,068,,28,17,038,,02,10,141,14,12,04,334,,1*6E
$GPGSV,4,4,13,25,02,001,,1*52
$GPGSV,1,1,04,01,38,138,26,04,67,164,25,06,36,305,16,09,33,208,26,8*69
$GLGSV,2,1,08,80,04,335,,88,74,213,18,72,40,045,,81,37,321,18,1*74
$GLGSV,2,2,08,66,27,231,26,87,17,157,26,73,14,026,,65,79,256,,1*76
$GAGSV,3,1,09,23,07,321,09,15,66,140,22,03,66,098,,13,55,300,18,7*7C
$GAGSV,3,2,09,08,41,192,29,05,23,047,,34,15,130,12,26,05,306,,7*76
$GAGSV,3,3,09,31,03,007,,7*4C
$GAGSV,1,1,02,08,41,192,25,15,66,140,19,1*7E
$GBGSV,4,1,15,48,,,16,19,56,237,18,35,52,279,20,29,38,186,24,1*4E
$GBGSV,4,2,15,09,30,076,,06,29,061,,16,27,052,,44,17,318,14,1*79
$GBGSV,4,3,15,05,15,118,,32,14,061,,23,10,046,,37,06,092,,1*74
$GBGSV,4,4,15,22,05,240,17,25,01,002,,20,70,065,,1*45
$GBGSV,1,1,04,19,56,237,18,35,52,279,20,29,38,186,23,48,,,21,5*4C
$GNGLL,5159.914914,N,00422.397796,E,082452.000,A,D*42
$GNRMC,082453.000,A,5159.914926,N,00422.397772,E,0.40,309.34,160925,,,D,V*05
$GNVTG,309.34,T,,M,0.40,N,0.73,K,D*2B
$GNGGA,082453.000,5159.914926,N,00422.397772,E,2,22,1.30,32.353,M,47.111,M,,*4F
$GNGSA,A,3,19,01,17,06,09,04,,,,,,,1.60,1.30,0.93,1*0A
$GNGSA,A,3,66,87,,,,,,,,,,,1.60,1.30,0.93,2*02
$GNGSA,A,3,15,08,,,,,,,,,,,1.60,1.30,0.93,3*00
$GNGSA,A,3,19,35,29,,,,,,,,,,1.60,1.30,0.93,4*0E
$GPGSV,4,1,13,03,66,071,,19,41,269,17,01,38,138,28,17,37,239,19,1*68
$GPGSV,4,2,13,06,36,305,16,09,33,208,30,04,67,164,18,34,29,191,34,1*6F
$GPGSV,4,3,13,31,27,068,,28,17,038,,02,10,141,13,12,04,334,,1*69
$GPGSV,4,4,13,25,02,001,,1*52
$GPGSV,1,1,04,01,38,138,26,04,67,164,25,06,36,305,17,09,33,208,25,8*6B
$GLGSV,2,1,08,80,04,335,,88,74,213,18,72,40,045,,81,37,321,18,1*74
$GLGSV,2,2,08,66,27,231,26,87,17,157,26,73,14,026,,65,79,256,,1*76
$GAGSV,3,1,09,23,07,321,09,15,66,140,22,03,66,098,,13,55,300,18,7*7C
$GAGSV,3,2,09,08,41,192,29,05,23,047,,34,15,130,12,26,05,306,,7*76
$GAGSV,3,3,09,31,03,007,,7*4C
$GAGSV,1,1,02,08,41,192,25,15,66,140,19,1*7E
$GBGSV,4,1,15,48,,,16,19,56,237,18,35,52,279,20,29,38,186,23,1*49
$GBGSV,4,2,15,09,30,076,,06,29,061,,16,27,052,,44,17,318,14,1*79
$GBGSV,4,3,15,05,15,118,,32,14,061,,23,10,046,,37,06,092,,1*74
$GBGSV,4,4,15,22,05,240,17,25,01,002,,20,70,065,,1*45
$GBGSV,1,1,04,19,56,237,17,35,52,279,20,29,38,186,23,48,,,21,5*43
$GNGLL,5159.914926,N,00422.397772,E,082453.000,A,D*48
$GNRMC,082454.000,A,5159.914752,N,00422.397820,E,0.59,99.88,160925,,,D,V*32
$GNVTG,99.88,T,,M,0.59,N,1.08,K,D*13
$GNGGA,082454.000,5159.914752,N,00422.397820,E,2,21,1.30,32.334,M,47.111,M,,*4F
$GNGSA,A,3,19,01,06,09,04,,,,,,,,1.60,1.30,0.93,1*0C
$GNGSA,A,3,66,,,,,,,,,,,,1.60,1.30,0.93,2*0D
$GNGSA,A,3,23,15,08,,,,,,,,,,1.60,1.30,0.93,3*01
$GNGSA,A,3,19,35,29,,,,,,,,,,1.60,1.30,0.93,4*0E
$GPGSV,4,1,13,03,66,071,,19,41,269,16,01,38,138,28,17,37,239,20,1*63
$GPGSV,4,2,13,06,36,305,16,09,33,208,30,04,67,164,18,34,29,191,34,1*6F
$GPGSV,4,3,13,31,27,068,,28,17,038,,02,10,141,14,12,04,334,,1*6E
$GPGSV,4,4,13,25,02,001,,1*52
$GPGSV,1,1,04,01,38,138,27,04,67,164,25,06,36,305,17,09,33,208,26,8*69
$GLGSV,2,1,08,80,04,335,,88,74,213,19,72,40,045,,81,37,321,18,1*75
$GLGSV,2,2,08,66,27,231,26,87,17,157,26,73,14,026,,65,79,256,,1*76
$GAGSV,3,1,09,23,07,321,09,15,66,140,22,03,66,098,,13,55,300,18,7*7C
$GAGSV,3,2,09,08,41,192,29,05,23,047,,34,15,130,,26,05,306,,7*75
$GAGSV,3,3,09,31,03,007,,7*4C
$GAGSV,1,1,02,08,41,192,25,15,66,140,19,1*7E
$GBGSV,4,1,15,48,,,16,19,56,237,18,35,52,279,20,29,38,186,23,1*49
$GBGSV,4,2,15,09,30,076,,06,29,061,,16,27,052,,44,17,318,14,1*79
$GBGSV,4,3,15,05,15,118,,32,14,061,,23,10,046,,37,06,092,,1*74
$GBGSV,4,4,15,22,05,240,17,25,01,002,,20,70,065,,1*45
$GBGSV,1,1,04,19,56,237,17,35,52,279,20,29,38,186,23,48,,,21,5*43
$GNGLL,5159.914752,N,00422.397820,E,082454.000,A,D*4A
$GNRMC,082455.000,A,5159.914704,N,00422.397826,E,0.54,99.88,160925,,,D,V*3B
$GNVTG,99.88,T,,M,0.54,N,1.00,K,D*16
$GNGGA,082455.000,5159.914704,N,00422.397826,E,2,22,1.30,32.290,M,47.111,M,,*47
$GNGSA,A,3,01,17,06,09,04,,,,,,,,1.59,1.30,0.91,1*0A
$GNGSA,A,3,88,81,66,,,,,,,,,,1.59,1.30,0.91,2*0C
$GNGSA,A,3,15,08,,,,,,,,,,,1.59,1.30,0.91,3*08
$GNGSA,A,3,19,35,29,,,,,,,,,,1.59,1.30,0.91,4*06
$GPGSV,4,1,13,03,66,071,,19,41,269,14,01,38,138,28,17,37,239,21,1*60
$GPGSV,4,2,13,06,36,305,16,09,33,208,29,04,67,164,18,34,29,191,34,1*67
$GPGSV,4,3,13,31,27,068,,28,17,038,,02,10,141,14,12,04,334,,1*6E
$GPGSV,4,4,13,25,02,001,,1*52
$GPGSV,1,1,04,01,38,138,28,04,67,164,26,06,36,305,17,09,33,208,29,8*6A
$GLGSV,2,1,08,80,04,335,,88,74,213,19,72,40,045,,81,37,321,19,1*74
$GLGSV,2,2,08,66,27,231,26,87,17,157,26,73,14,026,,65,79,256,,1*76
$GAGSV,3,1,09,23,07,321,09,15,66,140,22,03,66,098,,13,55,300,18,7*7C
$GAGSV,3,2,09,08,41,192,29,05,23,047,,34,15,130,,26,05,306,,7*75
$GAGSV,3,3,09,31,03,007,,7*4C
$GAGSV,1,1,02,08,41,192,25,15,66,140,21,1*75
$GBGSV,4,1,15,48,,,16,19,56,237,18,35,52,279,20,29,38,186,23,1*49
$GBGSV,4,2,15,09,30,076,,06,29,061,,16,27,052,,44,17,318,14,1*79
$GBGSV,4,3,15,05,15,118,,32,14,061,,23,10,046,,37,06,092,,1*74
$GBGSV,4,4,15,22,05,240,17,25,01,002,,20,70,065,,1*45
$GBGSV,1,1,04,19,56,237,19,35,52,279,20,29,38,186,23,48,,,21,5*4D
$GNGLL,5159.914704,N,00422.397826,E,082455.000,A,D*4E
$GNRMC,082456.000,A,5159.914668,N,00422.397688,E,0.18,99.88,160925,,,D,V*31
$GNVTG,99.88,T,,M,0.18,N,0.33,K,D*1F
$GNGGA,082456.000,5159.914668,N,00422.397688,E,2,20,1.30,32.278,M,47.111,M,,*41
$GNGSA,A,3,01,06,09,04,,,,,,,,,1.59,1.30,0.91,1*0C
$GNGSA,A,3,88,66,,,,,,,,,,,1.59,1.30,0.91,2*05
$GNGSA,A,3,15,08,,,,,,,,,,,1.59,1.30,0.91,3*08
$GNGSA,A,3,19,35,29,,,,,,,,,,1.59,1.30,0.91,4*06
$GPGSV,4,1,13,03,66,071,,19,41,269,15,01,38,138,27,17,37,239,22,1*6D
$GPGSV,4,2,13,06,36,305,16,09,33,208,28,04,67,164,18,34,29,191,34,1*66
$GPGSV,4,3,13,31,27,068,,28,17,038,,02,10,141,15,12,04,334,,1*6F
$GPGSV,4,4,13,25,02,001,,1*52
$GPGSV,1,1,04,01,38,138,27,04,67,164,26,06,36,305,16,09,33,208,28,8*65
$GLGSV,2,1,08,80,04,335,,88,74,213,19,72,40,045,,81,37,321,19,1*74
$GLGSV,2,2,08,66,27,231,26,87,17,157,26,73,14,026,,65,79,256,,1*76
$GAGSV,3,1,09,23,07,321,10,15,66,140,22,03,66,098,,13,55,300,18,7*74
$GAGSV,3,2,09,08,41,192,29,05,23,047,,34,15,130,14,26,05,306,,7*70
$GAGSV,3,3,09,31,03,007,,7*4C
$GAGSV,1,1,02,08,41,192,25,15,66,140,18,1*7F
$GBGSV,4,1,15,48,,,16,19,56,237,18,35,52,279,19,29,38,186,22,1*42
$GBGSV,4,2,15,09,30,076,,06,29,061,,16,27,052,,44,17,318,13,1*7E
$GBGSV,4,3,15,05,15,118,,32,14,061,,23,10,046,,37,06,092,,1*74
$GBGSV,4,4,15,22,05,240,17,25,01,002,,20,70,065,,1*45
$GBGSV,1,1,04,19,56,237,18,35,52,279,19,29,38,186,23,48,,,20,5*47
$GNGLL,5159.914668,N,00422.397688,E,082456.000,A,D*4C
$GNRMC,082457.000,A,5159.914272,N,00422.397340,E,0.20,99.88,160925,,,D,V*35
$GNVTG,99.88,T,,M,0.20,N,0.37,K,D*10
$GNGGA,082457.000,5159.914272,N,00422.397340,E,2,22,1.30,32.315,M,47.111,M,,*46
$GNGSA,A,3,01,06,09,04,,,,,,,,,1.59,1.30,0.91,1*0C
$GNGSA,A,3,88,81,66,,,,,,,,,,1.59,1.30,0.91,2*0C
$GNGSA,A,3,23,15,08,,,,,,,,,,1.59,1.30,0.91,3*09
$GNGSA,A,3,19,35,29,,,,,,,,,,1.59,1.30,0.91,4*06
$GPGSV,4,1,13,03,66,071,,19,41,269,15,01,38,138,27,17,37,239,22,1*6D
$GPGSV,4,2,13,06,36,305,16,09,33,208,28,04,67,164,18,34,29,191,34,1*66
$GPGSV,4,3,13,31,27,068,,28,17,038,,02,10,141,12,12,04,334,,1*68
$GPGSV,4,4,13,25,02,001,,1*52
$GPGSV,1,1,04,01,38,138,27,04,67,164,26,06,36,305,17,09,33,208,28,8*64
$GLGSV,2,1,08,80,04,335,,88,74,213,19,72,40,045,,81,37,321,19,1*74
$GLGSV,2,2,08,66,27,231,26,87,17,157,26,73,14,026,,65,79,256,,1*76
$GAGSV,3,1,09,23,07,321,10,15,66,140,22,03,66,098,,13,55,300,18,7*74
$GAGSV,3,2,09,08,41,192,29,05,23,047,,34,15,130,14,26,05,306,,7*70
$GAGSV,3,3,09,31,03,007,,7*4C
$GAGSV,1,1,02,08,41,192,25,15,66,140,19,1*7E
$GBGSV,4,1,15,48,,,16,19,56,237,18,35,52,279,18,29,38,186,22,1*43
$GBGSV,4,2,15,09,30,076,,06,29,061,,16,27,052,,44,17,318,14,1*79
$GBGSV,4,3,15,05,15,118,,32,14,061,,23,10,046,,37,06,092,,1*74
$GBGSV,4,4,15,22,05,240,17,25,01,002,,20,70,065,,1*45
$GBGSV,1,1,04,19,56,237,19,35,52,279,19,29,38,186,23,48,,,20,5*46
$GNGLL,5159.914272,N,00422.397340,E,082457.000,A,D*43
$GNRMC,082458.000,A,5159.914188,N,00422.397208,E,0.01,99.88,160925,,,D,V*32
$GNVTG,99.88,T,,M,0.01,N,0.03,K,D*14
$GNGGA,082458.000,5159.914188,N,00422.397208,E,2,22,1.30,32.268,M,47.111,M,,*49
$GNGSA,A,3,01,17,06,09,04,,,,,,,,1.59,1.30,0.91,1*0A
$GNGSA,A,3,66,88,87,,,,,,,,,,1.59,1.30,0.91,2*0A
$GNGSA,A,3,15,08,,,,,,,,,,,1.59,1.30,0.91,3*08
$GNGSA,A,3,19,35,29,,,,,,,,,,1.59,1.30,0.91,4*06
$GPGSV,4,1,13,03,66,071,,19,41,269,14,01,38,138,28,17,37,239,22,1*63
$GPGSV,4,2,13,06,36,305,16,09,33,208,28,34,29,191,35,04,67,164,18,1*67
$GPGSV,4,3,13,31,27,068,,28,17,038,,02,10,141,13,12,04,334,,1*69
$GPGSV,4,4,13,25,02,001,,1*52
$GPGSV,1,1,04,01,38,138,27,04,67,164,26,06,36,305,17,09,33,208,28,8*64
$GLGSV,2,1,07,66,27,231,26,72,40,045,,81,37,321,19,88,74,213,19,1*73
$GLGSV,2,2,07,87,17,157,26,73,14,026,,80,04,335,,1*4D
$GAGSV,3,1,09,26,05,306,,15,66,140,22,03,66,098,,13,55,300,18,7*77
$GAGSV,3,2,09,08,41,192,29,05,23,047,,34,15,130,,23,07,321,10,7*76
$GAGSV,3,3,09,31,03,007,,7*4C
$GAGSV,1,1,02,08,41,192,25,15,66,140,18,1*7F
$GBGSV,4,1,15,48,,,15,19,56,237,17,35,52,279,18,29,38,186,22,1*4F
$GBGSV,4,2,15,09,30,076,,06,29,061,,16,27,052,,44,17,318,15,1*78
$GBGSV,4,3,15,05,15,118,,32,14,061,,23,10,046,,37,06,092,,1*74
$GBGSV,4,4,15,22,05,240,17,25,01,002,,20,70,065,,1*45
$GBGSV,1,1,04,19,56,237,19,35,52,279,19,29,38,186,23,48,,,20,5*46
$GNGLL,5159.914188,N,00422.397208,E,082458.000,A,D*47
$GNRMC,082459.000,A,5159.914164,N,00422.397394,E,0.16,99.88,160925,,,D,V*33
$GNVTG,99.88,T,,M,0.16,N,0.30,K,D*12
$GNGGA,082459.000,5159.914164,N,00422.397394,E,2,22,1.24,32.237,M,47.111,M,,*41
$GNGSA,A,3,01,17,06,09,04,,,,,,,,1.54,1.24,0.91,1*02
$GNGSA,A,3,66,81,88,,,,,,,,,,1.54,1.24,0.91,2*04
$GNGSA,A,3,15,08,,,,,,,,,,,1.54,1.24,0.91,3*00
$GNGSA,A,3,19,35,29,,,,,,,,,,1.54,1.24,0.91,4*0E
$GPGSV,4,1,13,03,66,071,,19,41,269,11,01,38,138,28,17,37,239,22,1*66
$GPGSV,4,2,13,06,36,305,16,09,33,208,28,34,29,191,35,04,67,164,18,1*67
$GPGSV,4,3,13,31,27,068,,28,17,038,,02,10,141,12,12,04,334,,1*68
$GPGSV,4,4,13,25,02,001,,1*52
$GPGSV,1,1,04,01,38,138,28,04,67,164,27,06,36,305,18,09,33,208,28,8*65
$GLGSV,2,1,07,66,27,231,26,72,40,045,,81,37,321,19,88,74,213,19,1*73
$GLGSV,2,2,07,87,17,157,26,73,14,026,,80,04,335,,1*4D
$GAGSV,3,1,09,26,05,306,,15,66,140,21,03,66,098,,13,55,300,18,7*74
$GAGSV,3,2,09,08,41,192,29,05,23,047,,34,15,130,,23,07,321,09,7*7E
$GAGSV,3,3,09,31,03,007,,7*4C
$GAGSV,1,1,02,08,41,192,25,15,66,140,20,1*74
$GBGSV,4,1,15,48,,,15,19,58,238,17,35,52,279,17,29,38,186,22,1*41
$GBGSV,4,2,15,09,30,076,,06,29,061,,16,27,052,,44,17,318,15,1*78
$GBGSV,4,3,15,05,15,118,,32,14,061,,23,10,046,,37,06,092,,1*74
$GBGSV,4,4,15,22,05,240,17,25,01,002,,20,70,065,,1*45
$GBGSV,1,1,04,19,58,238,19,35,52,279,20,29,38,186,24,48,,,21,5*4B
$GNGLL,5159.914164,N,00422.397394,E,082459.000,A,D*40
$GNRMC,082500.000,A,5159.914188,N,00422.397232,E,0.62,261.26,160925,,,D,V*03
$GNVTG,261.26,T,,M,0.62,N,1.14,K,D*27
$GNGGA,082500.000,5159.914188,N,00422.397232,E,2,21,1.24,32.254,M,47.111,M,,*45
$GNGSA,A,3,01,17,06,09,04,,,,,,,,1.54,1.24,0.91,1*02
$GNGSA,A,3,66,88,,,,,,,,,,,1.54,1.24,0.91,2*0D
$GNGSA,A,3,15,08,,,,,,,,,,,1.54,1.24,0.91,3*00
$GNGSA,A,3,19,35,29,,,,,,,,,,1.54,1.24,0.91,4*0E
$GPGSV,4,1,13,03,66,071,,19,41,269,14,01,38,138,28,17,37,239,22,1*63
$GPGSV,4,2,13,06,36,305,16,09,33,208,28,04,67,164,18,34,29,191,35,1*67
$GPGSV,4,3,13,31,27,068,,28,17,038,,02,10,141,13,12,04,334,,1*69
$GPGSV,4,4,13,25,02,001,,1*52
$GPGSV,1,1,04,01,38,138,28,04,67,164,27,06,36,305,17,09,33,208,28,8*6A
$GLGSV,2,1,07,66,27,231,26,72,40,045,,81,37,321,19,88,74,213,19,1*73
$GLGSV,2,2,07,87,17,157,27,73,14,026,,80,04,335,,1*4C
$GAGSV,2,1,08,26,05,306,,15,66,140,21,13,55,300,18,08,41,192,29,7*7A
$GAGSV,2,2,08,05,23,047,,34,15,130,,23,07,321,09,31,03,007,,7*74
$GAGSV,1,1,02,08,41,192,25,15,66,140,20,1*74
$GBGSV,4,1,15,48,,,15,19,58,238,17,35,52,279,17,29,38,186,22,1*41
$GBGSV,4,2,15,09,30,076,,06,29,061,,16,27,052,,44,17,318,15,1*78
$GBGSV,4,3,15,05,15,118,,32,14,061,,23,10,046,,37,06,092,,1*74
$GBGSV,4,4,15,22,05,240,17,25,01,002,,20,69,065,,1*4D
$GBGSV,1,1,04,19,58,238,18,35,52,279,20,29,38,186,23,48,,,21,5*4D
$GNGLL,5159.914188,N,00422.397232,E,082500.000,A,D*42
$GNRMC,082501.000,A,5159.914176,N,00422.397298,E,0.33,261.26,160925,,,D,V*07
$GNVTG,261.26,T,,M,0.33,N,0.61,K,D*20
$GNGGA,082501.000,5159.914176,N,00422.397298,E,2,21,1.30,32.253,M,47.111,M,,*47
$GNGSA,A,3,01,06,09,04,,,,,,,,,1.59,1.30,0.91,1*0C
$GNGSA,A,3,66,87,88,,,,,,,,,,1.59,1.30,0.91,2*0A
$GNGSA,A,3,15,08,,,,,,,,,,,1.59,1.30,0.91,3*08
$GNGSA,A,3,19,35,29,,,,,,,,,,1.59,1.30,0.91,4*06
$GPGSV,4,1,13,03,66,071,,19,41,269,14,01,38,138,28,17,37,239,21,1*60
$GPGSV,4,2,13,06,36,305,16,09,33,208,28,34,29,191,35,04,67,164,18,1*67
$GPGSV,4,3,13,31,27,068,,28,17,038,,02,10,141,15,12,04,334,,1*6F
$GPGSV,4,4,13,25,02,001,,1*52
$GPGSV,1,1,04,01,38,138,28,04,67,164,27,06,36,305,18,09,33,208,28,8*65
$GLGSV,2,1,08,80,04,335,,72,40,045,,81,37,321,19,66,27,231,26,1*7E
$GLGSV,2,2,08,87,17,157,27,73,14,026,,74,08,069,,88,74,213,18,1*74
$GAGSV,3,1,09,26,05,306,,15,66,140,21,03,66,098,,13,55,300,18,7*74
$GAGSV,3,2,09,08,41,192,29,05,23,047,,34,15,130,,23,07,321,10,7*76
$GAGSV,3,3,09,31,03,007,,7*4C
$GAGSV,1,1,02,08,41,192,25,15,66,140,20,1*74
$GBGSV,4,1,16,48,,,15,19,58,238,16,35,52,279,17,29,38,186,22,1*43
$GBGSV,4,2,16,09,30,076,,06,29,061,,16,27,052,,39,26,045,,1*7C
$GBGSV,4,3,16,44,17,318,15,05,15,118,,32,14,061,,23,10,046,,1*76
$GBGSV,4,4,16,37,06,092,,22,05,240,17,25,01,002,,20,69,065,,1*77
$GBGSV,1,1,04,19,58,238,18,35,52,279,20,29,38,186,22,48,,,21,5*4C
$GNGLL,5159.914176,N,00422.397298,E,082501.000,A,D*42
$GNRMC,082502.000,A,5159.913978,N,00422.397298,E,0.90,182.04,160925,,,D,V*02
$GNVTG,182.04,T,,M,0.90,N,1.67,K,D*20
$GNGGA,082502.000,5159.913978,N,00422.397298,E,2,22,1.30,32.289,M,47.111,M,,*41
$GNGSA,A,3,01,17,06,09,04,,,,,,,,1.59,1.30,0.91,1*0A
$GNGSA,A,3,66,81,88,,,,,,,,,,1.59,1.30,0.91,2*0C
$GNGSA,A,3,15,08,,,,,,,,,,,1.59,1.30,0.91,3*08
$GNGSA,A,3,19,35,29,,,,,,,,,,1.59,1.30,0.91,4*06
$GPGSV,4,1,13,03,66,071,,19,41,269,14,01,38,138,27,17,37,239,20,1*6E
$GPGSV,4,2,13,06,36,305,16,09,33,208,28,34,29,191,35,04,67,164,18,1*67
$GPGSV,4,3,13,31,27,068,,28,17,038,,02,10,141,14,12,04,334,,1*6E
$GPGSV,4,4,13,25,02,001,,1*52
$GPGSV,1,1,04,01,38,138,28,04,67,164,27,06,36,305,18,09,33,208,28,8*65
$GLGSV,2,1,07,66,27,231,26,72,40,045,,81,37,321,18,88,74,213,18,1*73
$GLGSV,2,2,07,87,17,157,27,73,14,026,,80,04,335,,1*4C
$GAGSV,3,1,09,26,05,306,,15,66,140,21,03,66,098,,13,55,300,18,7*74
$GAGSV,3,2,09,08,41,192,29,05,23,047,,34,15,130,,23,07,321,10,7*76
$GAGSV,3,3,09,31,03,007,,7*4C
$GAGSV,1,1,02,08,41,192,25,15,66,140,19,1*7E
$GBGSV,4,1,16,48,,,15,19,58,238,15,35,52,279,17,29,38,186,23,1*41
$GBGSV,4,2,16,09,30,076,,06,29,061,,16,27,052,,39,26,045,,1*7C
$GBGSV,4,3,16,44,17,318,15,05,15,118,,32,14,061,,23,10,046,,1*76
$GBGSV,4,4,16,22,06,240,17,37,06,092,,25,01,002,,20,69,065,,1*74
$GBGSV,1,1,04,19,58,238,18,35,52,279,20,29,38,186,22,48,,,21,5*4C
$GNGLL,5159.913978,N,00422.397298,E,082502.000,A,D*40
$GNRMC,082503.000,A,5159.913894,N,00422.397166,E,0.49,182.04,160925,,,D,V*06
$GNVTG,182.04,T,,M,0.49,N,0.90,K,D*2D
$GNGGA,082503.000,5159.913894,N,00422.397166,E,2,22,1.26,32.357,M,47.111,M,,*44
$GNGSA,A,3,01,17,06,09,04,,,,,,,,1.53,1.26,0.86,1*01
$GNGSA,A,3,66,88,87,,,,,,,,,,1.53,1.26,0.86,2*01
$GNGSA,A,3,15,08,,,,,,,,,,,1.53,1.26,0.86,3*03
$GNGSA,A,3,19,35,29,,,,,,,,,,1.53,1.26,0.86,4*0D
$GPGSV,4,1,13,03,66,071,,19,41,269,15,01,38,138,27,17,37,239,20,1*6F
$GPGSV,4,2,13,06,36,305,16,09,33,208,28,34,29,191,34,04,67,164,18,1*66
$GPGSV,4,3,13,31,27,068,,28,17,038,,02,10,141,13,12,04,334,,1*69
$GPGSV,4,4,13,25,02,001,,1*52
$GPGSV,1,1,04,01,38,138,27,04,67,164,27,06,36,305,18,09,33,208,28,8*6A
$GLGSV,2,1,07,66,27,231,26,72,40,045,,81,37,321,18,88,74,213,18,1*73
$GLGSV,2,2,07,87,17,157,28,73,14,026,,80,04,335,,1*43
$GAGSV,3,1,09,26,05,306,,15,66,140,21,03,66,098,,13,55,300,18,7*74
$GAGSV,3,2,09,08,41,192,29,05,23,047,,34,15,130,,23,07,321,10,7*76
$GAGSV,3,3,09,31,03,007,,7*4C
$GAGSV,1,1,02,08,41,192,24,15,66,140,18,1*7E
$GBGSV,4,1,16,48,,,15,19,58,238,15,35,52,279,17,29,38,186,24,1*46
$GBGSV,4,2,16,09,30,076,,06,29,061,,16,27,052,,39,26,045,,1*7C
$GBGSV,4,3,16,44,17,318,16,05,15,118,,32,14,061,,23,10,045,,1*76
$GBGSV,4,4,16,22,06,240,17,37,06,092,,25,01,002,,20,69,065,,1*74
$GBGSV,1,1,04,19,58,238,18,35,52,279,20,29,38,186,22,48,,,20,5*4D
$GNGLL,5159.913894,N,00422.397166,E,082503.000,A,D*40
$GNRMC,082504.000,A,5159.913882,N,00422.396920,E,0.80,242.04,160925,,,D,V*07
$GNVTG,242.04,T,,M,0.80,N,1.49,K,D*22
$GNGGA,082504.000,5159.913882,N,00422.396920,E,2,22,1.26,32.544,M,47.111,M,,*4B
$GNGSA,A,3,01,17,06,09,04,,,,,,,,1.53,1.26,0.86,1*01
$GNGSA,A,3,66,88,87,,,,,,,,,,1.53,1.26,0.86,2*01
$GNGSA,A,3,15,08,,,,,,,,,,,1.53,1.26,0.86,3*03
$GNGSA,A,3,19,35,29,,,,,,,,,,1.53,1.26,0.86,4*0D
$GPGSV,4,1,13,03,66,071,,19,41,269,14,01,38,138,27,17,37,239,20,1*6E
$GPGSV,4,2,13,06,36,305,16,09,33,208,28,34,29,191,35,04,67,164,18,1*67
$GPGSV,4,3,13,31,27,068,,28,17,038,,02,10,141,13,12,04,334,,1*69
$GPGSV,4,4,13,25,02,001,,1*52
$GPGSV,1,1,04,01,38,138,27,04,67,164,27,06,36,305,18,09,33,208,28,8*6A
$GLGSV,2,1,07,66,27,231,26,72,40,045,,81,37,321,18,88,74,213,18,1*73
$GLGSV,2,2,07,87,17,157,28,73,14,026,,80,04,335,,1*43
$GAGSV,3,1,09,26,05,306,,15,66,140,21,03,66,098,,13,55,300,18,7*74
$GAGSV,3,2,09,08,41,192,29,05,23,047,,34,15,130,,23,07,321,10,7*76
$GAGSV,3,3,09,31,03,007,,7*4C
$GAGSV,1,1,02,08,41,192,24,15,66,140,19,1*7F
$GBGSV,4,1,16,48,,,16,19,58,238,14,35,52,279,16,29,38,186,24,1*45
$GBGSV,4,2,16,09,30,076,,06,29,061,,16,27,052,,39,26,045,,1*7C
$GBGSV,4,3,16,44,17,318,16,05,15,118,,32,14,061,,23,10,045,,1*76
$GBGSV,4,4,16,22,06,240,17,37,06,092,,25,01,002,,20,69,065,,1*74
$GBGSV,1,1,04,19,58,238,18,35,52,279,20,29,38,186,22,48,,,20,5*4D
$GNGLL,5159.913882,N,00422.396920,E,082504.000,A,D*4B
$GNRMC,082505.000,A,5159.913996,N,00422.396968,E,0.25,242.04,160925,,,D,V*01
$GNVTG,242.04,T,,M,0.25,N,0.47,K,D*22
$GNGGA,082505.000,5159.913996,N,00422.396968,E,2,22,1.12,32.678,M,47.111,M,,*49
$GNGSA,A,3,01,06,09,04,,,,,,,,,1.40,1.12,0.84,1*00
$GNGSA,A,3,66,81,88,87,,,,,,,,,1.40,1.12,0.84,2*0F
$GNGSA,A,3,15,08,,,,,,,,,,,1.40,1.12,0.84,3*04
$GNGSA,A,3,19,35,29,,,,,,,,,,1.40,1.12,0.84,4*0A
$GPGSV,4,1,13,03,66,071,,19,41,269,16,01,38,138,27,17,37,239,20,1*6C
$GPGSV,4,2,13,06,36,305,15,09,33,208,28,34,29,191,35,04,67,164,18,1*64
$GPGSV,4,3,13,31,27,068,,28,17,038,,02,10,141,13,12,04,334,,1*69
$GPGSV,4,4,13,25,02,001,,1*52
$GPGSV,1,1,04,01,38,138,27,04,67,164,27,06,36,305,18,09,33,208,28,8*6A
$GLGSV,2,1,07,66,27,231,26,72,40,045,,81,37,321,19,88,74,213,18,1*72
$GLGSV,2,2,07,87,17,157,28,73,14,026,,80,04,335,,1*43
$GAGSV,3,1,09,26,05,306,,15,66,140,21,03,66,098,,13,55,300,18,7*74
$GAGSV,3,2,09,08,41,192,29,05,23,047,,34,15,130,,23,07,321,10,7*76
$GAGSV,3,3,09,31,03,007,,7*4C
$GAGSV,1,1,02,08,41,192,24,15,66,140,19,1*7F
$GBGSV,4,1,15,48,,,17,19,58,238,14,35,52,279,16,29,38,186,24,1*47
$GBGSV,4,2,15,09,30,076,,06,29,061,,16,27,052,,39,26,045,,1*7F
$GBGSV,4,3,15,44,17,318,16,05,15,118,,32,14,061,,23,10,045,,1*75
$GBGSV,4,4,15,22,06,240,17,37,06,092,,20,69,065,,1*43
$GBGSV,1,1,04,19,58,238,18,35,52,279,20,29,38,186,23,48,,,20,5*4C
$GNGLL,5159.913996,N,00422.396968,E,082505.000,A,D*42
$GNRMC,082506.000,A,5159.914026,N,00422.397274,E,0.69,70.72,160925,,,D,V*3A
$GNVTG,70.72,T,,M,0.69,N,1.28,K,D*10
$GNGGA,082506.000,5159.914026,N,00422.397274,E,2,22,1.12,32.707,M,47.111,M,,*41
$GNGSA,A,3,01,06,09,04,,,,,,,,,1.41,1.12,0.86,1*03
$GNGSA,A,3,66,81,87,,,,,,,,,,1.41,1.12,0.86,2*0C
$GNGSA,A,3,15,08,23,,,,,,,,,,1.41,1.12,0.86,3*06
$GNGSA,A,3,19,35,29,,,,,,,,,,1.41,1.12,0.86,4*09
$GPGSV,4,1,13,03,66,071,,19,41,269,17,01,38,138,26,17,37,239,20,1*6C
$GPGSV,4,2,13,06,36,305,13,09,33,208,28,34,29,191,35,04,67,164,17,1*6D
$GPGSV,4,3,13,31,27,068,,28,17,038,,02,10,141,15,12,04,334,,1*6F
$GPGSV,4,4,13,25,02,001,,1*52
$GPGSV,1,1,04,01,38,138,27,04,67,164,28,06,36,305,17,09,33,208,28,8*6A
$GLGSV,2,1,07,66,27,231,27,72,40,045,,81,37,321,19,88,74,213,18,1*73
$GLGSV,2,2,07,87,17,157,27,73,14,026,,80,04,335,,1*4C
$GAGSV,3,1,09,26,05,306,,15,66,140,20,03,66,098,,13,55,300,18,7*75
$GAGSV,3,2,09,08,41,192,29,05,23,047,,34,15,130,,23,07,321,10,7*76
$GAGSV,3,3,09,31,03,007,,7*4C
$GAGSV,1,1,02,08,41,192,24,15,66,140,19,1*7F
$GBGSV,4,1,16,48,,,17,19,58,238,14,35,52,279,16,29,38,186,23,1*43
$GBGSV,4,2,16,09,30,076,,06,29,061,,16,27,052,,39,26,045,,1*7C
$GBGSV,4,3,16,44,17,318,16,05,15,118,,32,14,061,,23,10,045,,1*76
$GBGSV,4,4,16,22,06,240,17,37,06,092,,60,01,101,,20,69,065,,1*77
$GBGSV,1,1,04,19,58,238,17,35,52,279,20,29,38,186,23,48,,,20,5*43
$GNGLL,5159.914026,N,00422.397274,E,082506.000,A,D*43
$GNRMC,082507.000,A,5159.914182,N,00422.397430,E,0.62,70.72,160925,,,D,V*39
$GNVTG,70.72,T,,M,0.62,N,1.15,K,D*15
$GNGGA,082507.000,5159.914182,N,00422.397430,E,2,25,1.12,32.780,M,47.111,M,,*41
$GNGSA,A,3,19,01,17,06,09,04,,,,,,,1.41,1.12,0.86,1*0D
$GNGSA,A,3,66,81,88,87,,,,,,,,,1.41,1.12,0.86,2*0C
$GNGSA,A,3,15,08,23,,,,,,,,,,1.41,1.12,0.86,3*06
$GNGSA,A,3,19,35,29,,,,,,,,,,1.41,1.12,0.86,4*09
$GPGSV,4,1,13,03,66,071,,19,41,269,17,01,38,138,26,17,37,239,20,1*6C
$GPGSV,4,2,13,06,36,305,13,09,33,208,28,34,29,191,35,04,67,164,16,1*6C
$GPGSV,4,3,13,31,27,068,,28,17,038,,02,10,141,14,12,04,334,,1*6E
$GPGSV,4,4,13,25,02,001,,1*52
$GPGSV,1,1,04,01,38,138,27,04,67,164,28,06,36,305,17,09,33,208,27,8*65
$GLGSV,2,1,07,66,27,231,28,72,40,045,,81,37,321,19,88,74,213,18,1*7C
$GLGSV,2,2,07,87,17,157,26,73,14,026,,80,04,335,,1*4D
$GAGSV,3,1,09,26,05,306,,15,66,140,19,03,66,098,,13,55,300,18,7*7F
$GAGSV,3,2,09,08,41,192,29,05,23,047,,34,15,130,,23,07,321,10,7*76
$GAGSV,3,3,09,31,03,007,,7*4C
$GAGSV,1,1,02,08,41,192,24,15,66,140,18,1*7E
$GBGSV,4,1,16,48,,,17,19,58,238,14,35,52,279,16,29,38,186,23,1*43
$GBGSV,4,2,16,09,30,076,,06,29,061,,16,27,052,,39,26,045,,1*7C
$GBGSV,4,3,16,44,17,318,16,05,15,118,,32,14,061,,23,10,045,,1*76
$GBGSV,4,4,16,22,06,240,18,37,06,092,,60,01,101,,20,69,065,,1*78
$GBGSV,1,1,04,19,58,238,17,35,52,279,20,29,38,186,23,48,,,20,5*43
$GNGLL,5159.914182,N,00422.397430,E,082507.000,A,D*4B
$GNRMC,082508.000,A,5159.914314,N,00422.397520,E,0.36,70.72,160925,,,D,V*3A
$GNVTG,70.72,T,,M,0.36,N,0.66,K,D*11
$GNGGA,082508.000,5159.914314,N,00422.397520,E,2,24,1.05,32.789,M,47.111,M,,*4D
$GNGSA,A,3,19,01,17,06,09,04,,,,,,,1.36,1.05,0.86,1*0B
$GNGSA,A,3,66,81,88,87,,,,,,,,,1.36,1.05,0.86,2*0A
$GNGSA,A,3,15,08,,,,,,,,,,,1.36,1.05,0.86,3*01
$GNGSA,A,3,19,35,29,,,,,,,,,,1.36,1.05,0.86,4*0F
$GPGSV,4,1,13,03,66,071,,19,41,269,17,01,38,138,26,17,37,239,19,1*66
$GPGSV,4,2,13,06,36,305,15,09,33,208,28,04,67,164,16,34,29,191,35,1*6A
$GPGSV,4,3,13,31,27,068,,28,17,038,,02,10,141,13,12,04,334,,1*69
$GPGSV,4,4,13,25,02,001,,1*52
$GPGSV,1,1,04,01,38,138,26,04,67,164,28,06,36,305,17,09,33,208,28,8*6B
$GLGSV,2,1,07,66,27,231,29,72,40,045,,81,37,321,19,88,74,213,17,1*72
$GLGSV,2,2,07,87,17,157,27,73,14,026,,80,04,335,,1*4C
$GAGSV,3,1,09,23,07,321,11,15,66,140,19,03,66,098,,13,55,300,18,7*7D
$GAGSV,3,2,09,08,41,192,29,05,23,047,,34,15,130,,26,05,306,,7*75
$GAGSV,3,3,09,31,03,007,,7*4C
$GAGSV,1,1,02,08,41,192,24,15,66,140,18,1*7E
$GBGSV,4,1,14,48,,,17,19,58,238,17,35,52,279,13,29,38,186,23,1*47
$GBGSV,4,2,14,09,30,076,,06,29,061,,16,27,052,,44,17,318,16,1*7A
$GBGSV,4,3,14,05,15,118,,32,14,061,,23,10,045,,22,06,240,18,1*76
$GBGSV,4,4,14,37,06,092,,20,69,065,,1*74
$GBGSV,1,1,04,19,58,238,17,35,52,279,20,29,38,186,23,48,,,20,5*43
$GNGLL,5159.914314,N,00422.397520,E,082508.000,A,D*49
$GNRMC,082509.000,A,5159.914494,N,00422.397856,E,0.37,70.72,160925,,,D,V*39
$GNVTG,70.72,T,,M,0.37,N,0.69,K,D*1F
$GNGGA,082509.000,5159.914494,N,00422.397856,E,2,23,1.05,32.696,M,47.111,M,,*47
$GNGSA,A,3,19,01,17,06,09,04,,,,,,,1.36,1.05,0.86,1*0B
$GNGSA,A,3,66,81,87,,,,,,,,,,1.36,1.05,0.86,2*0A
$GNGSA,A,3,15,08,,,,,,,,,,,1.36,1.05,0.86,3*01
$GNGSA,A,3,19,35,29,,,,,,,,,,1.36,1.05,0.86,4*0F
$GPGSV,4,1,13,03,66,071,,19,41,269,18,01,38,138,26,17,37,239,19,1*69
$GPGSV,4,2,13,06,36,305,14,09,33,208,27,04,67,164,15,34,29,191,35,1*67
$GPGSV,4,3,13,31,27,068,,28,17,038,,02,10,141,12,12,04,334,,1*68
$GPGSV,4,4,13,25,02,001,,1*52
$GPGSV,1,1,04,01,38,138,26,04,67,164,28,06,36,305,18,09,33,208,29,8*65
$GLGSV,2,1,07,66,27,231,29,72,40,045,,81,37,321,20,88,74,213,16,1*79
$GLGSV,2,2,07,87,17,157,27,73,14,026,,80,04,335,,1*4C
$GAGSV,3,1,09,23,07,321,,15,66,140,19,03,66,098,,13,55,300,18,7*7D
$GAGSV,3,2,09,08,41,192,29,05,23,047,,34,15,130,,26,05,306,,7*75
$GAGSV,3,3,09,31,03,007,,7*4C
$GAGSV,1,1,02,08,41,192,24,15,66,140,18,1*7E
$GBGSV,4,1,14,48,,,17,19,58,238,16,35,52,279,12,29,37,186,22,1*49
$GBGSV,4,2,14,09,30,076,,06,29,061,,16,27,052,,44,17,318,16,1*7A
$GBGSV,4,3,14,05,15,118,,32,14,061,,23,10,045,,22,06,240,18,1*76
$GBGSV,4,4,14,37,06,092,,20,69,065,,1*74
$GBGSV,1,1,04,19,58,238,17,35,52,279,20,29,37,186,24,48,,,21,5*4A
$GNGLL,5159.914494,N,00422.397856,E,082509.000,A,D*4B
$GNRMC,082510.000,A,5159.914668,N,00422.398006,E,0.60,19.91,160925,,,D,V*32
$GNVTG,19.91,T,,M,0.60,N,1.11,K,D*11
$GNGGA,082510.000,5159.914668,N,00422.398006,E,2,22,1.05,32.627,M,47.111,M,,*47
$GNGSA,A,3,01,17,06,09,04,,,,,,,,1.36,1.05,0.86,1*03
$GNGSA,A,3,66,81,87,,,,,,,,,,1.36,1.05,0.86,2*0A
$GNGSA,A,3,15,08,,,,,,,,,,,1.36,1.05,0.86,3*01
$GNGSA,A,3,19,35,29,,,,,,,,,,1.36,1.05,0.86,4*0F
$GPGSV,4,1,13,03,66,071,,19,41,269,18,01,38,138,26,17,37,239,19,1*69
$GPGSV,4,2,13,06,36,305,13,09,33,208,27,04,67,164,15,34,29,191,35,1*60
$GPGSV,4,3,13,31,27,068,,28,17,038,,02,10,141,14,12,04,334,,1*6E
$GPGSV,4,4,13,25,02,001,,1*52
$GPGSV,1,1,04,01,38,138,26,04,67,164,29,06,36,305,18,09,33,208,29,8*64
$GLGSV,2,1,07,66,27,231,29,72,40,045,,81,37,321,20,88,74,213,16,1*79
$GLGSV,2,2,07,87,17,157,27,73,14,026,,80,04,335,,1*4C
$GAGSV,3,1,09,23,07,321,,15,66,140,19,03,66,098,,13,55,300,18,7*7D
$GAGSV,3,2,09,08,41,192,28,05,23,047,,34,15,130,,26,05,306,,7*74
$GAGSV,3,3,09,31,03,007,,7*4C
$GAGSV,1,1,02,08,41,192,23,15,66,140,18,1*79
$GBGSV,4,1,14,48,,,17,19,58,238,17,35,52,279,12,29,37,186,21,1*4B
$GBGSV,4,2,14,09,30,076,,06,29,061,,16,27,052,,44,17,318,16,1*7A
$GBGSV,4,3,14,05,15,118,,32,14,061,,23,10,045,,22,06,240,19,1*77
$GBGSV,4,4,14,37,06,092,,20,69,065,,1*74
$GBGSV,1,1,04,19,58,238,17,35,52,279,20,29,37,186,24,48,,,21,5*4A
$GNGLL,5159.914668,N,00422.398006,E,082510.000,A,D*40
$GNRMC,082511.000,A,5159.914818,N,00422.398072,E,0.58,19.91,160925,,,D,V*32
$GNVTG,19.91,T,,M,0.58,N,1.07,K,D*1D
$GNGGA,082511.000,5159.914818,N,00422.398072,E,2,21,1.12,32.665,M,47.111,M,,*4F
$GNGSA,A,3,01,06,09,04,,,,,,,,,1.41,1.12,0.86,1*03
$GNGSA,A,3,66,81,87,,,,,,,,,,1.41,1.12,0.86,2*0C
$GNGSA,A,3,15,08,,,,,,,,,,,1.41,1.12,0.86,3*07
$GNGSA,A,3,19,35,29,,,,,,,,,,1.41,1.12,0.86,4*09
$GPGSV,4,1,13,03,66,071,,19,41,269,18,01,38,138,25,17,37,239,19,1*6A
$GPGSV,4,2,13,06,36,305,13,09,33,208,26,04,67,164,15,34,29,191,35,1*61
$GPGSV,4,3,13,31,27,068,,28,17,038,,02,10,141,13,12,04,334,,1*69
$GPGSV,4,4,13,25,02,001,,1*52
$GPGSV,1,1,04,01,38,138,27,04,67,164,29,06,36,305,19,09,33,208,28,8*65
$GLGSV,2,1,07,66,27,231,29,72,40,045,,81,37,321,20,88,74,213,15,1*7A
$GLGSV,2,2,07,87,17,157,27,73,14,026,,80,04,335,,1*4C
$GAGSV,3,1,09,23,07,321,,15,66,140,19,03,66,098,,13,55,300,18,7*7D
$GAGSV,3,2,09,08,41,192,28,05,23,047,,34,15,130,,26,05,306,,7*74
$GAGSV,3,3,09,31,03,007,,7*4C
$GAGSV,1,1,02,08,41,192,24,15,66,140,18,1*7E
$GBGSV,4,1,14,48,,,17,19,58,238,17,35,52,279,12,29,37,186,22,1*48
$GBGSV,4,2,14,09,30,076,,06,29,061,,16,27,052,,44,17,318,,1*7D
$GBGSV,4,3,14,05,15,118,,32,14,061,,23,10,045,,22,06,240,19,1*77
$GBGSV,4,4,14,37,06,092,,20,69,065,,1*74
$GBGSV,1,1,04,19,58,238,17,35,52,279,20,29,37,186,24,48,,,22,5*49
$GNGLL,5159.914818,N,00422.398072,E,082511.000,A,D*4B
$GNRMC,082512.000,A,5159.915076,N,00422.398426,E,0.90,26.27,160925,,,D,V*30
$GNVTG,26.27,T,,M,0.90,N,1.67,K,D*1E
$GNGGA,082512.000,5159.915076,N,00422.398426,E,2,24,1.12,32.644,M,47.110,M,,*4F
$GNGSA,A,3,19,01,17,06,09,04,,,,,,,1.41,1.12,0.86,1*0D
$GNGSA,A,3,66,81,87,,,,,,,,,,1.41,1.12,0.86,2*0C
$GNGSA,A,3,23,15,08,,,,,,,,,,1.41,1.12,0.86,3*06
$GNGSA,A,3,19,35,29,,,,,,,,,,1.41,1.12,0.86,4*09
$GPGSV,4,1,13,03,66,071,,19,41,269,18,01,38,138,24,17,37,239,22,1*63
$GPGSV,4,2,13,06,36,305,15,09,33,208,19,04,67,164,16,34,29,191,35,1*68
$GPGSV,4,3,13,31,27,068,,28,17,038,,02,10,141,15,12,04,334,,1*6F
$GPGSV,4,4,13,25,02,001,,1*52
$GPGSV,1,1,04,01,38,138,28,04,67,164,29,06,36,305,19,09,33,208,28,8*6A
$GLGSV,2,1,07,66,27,231,28,72,40,045,,81,37,321,19,88,74,213,15,1*71
$GLGSV,2,2,07,87,17,157,28,73,14,026,,80,04,335,,1*43
$GAGSV,3,1,09,23,07,321,15,15,66,140,19,03,66,098,,13,55,300,18,7*79
$GAGSV,3,2,09,08,41,192,28,05,23,047,,34,15,130,,26,05,306,,7*74
$GAGSV,3,3,09,31,03,007,,7*4C
$GAGSV,1,1,02,08,41,192,24,15,66,140,18,1*7E
$GBGSV,4,1,14,48,,,18,19,58,238,17,35,52,279,14,29,37,186,23,1*40
$GBGSV,4,2,14,09,30,076,,06,29,061,,16,27,052,,44,17,318,,1*7D
$GBGSV,4,3,14,05,15,118,,32,13,062,,23,10,045,,22,06,240,19,1*73
$GBGSV,4,4,14,37,06,092,,20,69,065,,1*74
$GBGSV,1,1,04,19,58,238,17,35,52,279,20,29,37,186,24,48,,,22,5*49
$GNGLL,5159.915076,N,00422.398426,E,082512.000,A,D*4C
$GNRMC,082513.000,A,5159.915238,N,00422.398504,E,0.49,26.27,160925,,,D,V*3C
$GNVTG,26.27,T,,M,0.49,N,0.90,K,D*13
$GNGGA,082513.000,5159.915238,N,00422.398504,E,2,22,1.12,32.587,M,47.111,M,,*4C
$GNGSA,A,3,19,01,06,09,04,,,,,,,,1.41,1.12,0.86,1*0B
$GNGSA,A,3,66,81,87,,,,,,,,,,1.41,1.12,0.86,2*0C
$GNGSA,A,3,15,08,,,,,,,,,,,1.41,1.12,0.86,3*07
$GNGSA,A,3,19,35,29,,,,,,,,,,1.41,1.12,0.86,4*09
$GPGSV,4,1,13,03,66,071,,19,41,269,18,01,38,138,22,17,37,239,20,1*67
$GPGSV,4,2,13,06,36,305,17,09,33,208,19,04,67,164,17,34,29,191,34,1*6A
$GPGSV,4,3,13,31,27,068,,28,17,038,,02,10,141,15,12,04,334,,1*6F
$GPGSV,4,4,13,25,02,001,,1*52
$GPGSV,1,1,04,01,38,138,29,04,67,164,29,06,36,305,20,09,33,208,29,8*60
$GLGSV,2,1,07,66,27,231,28,72,40,045,,81,37,321,18,88,74,213,15,1*70
$GLGSV,2,2,07,87,17,157,28,73,14,026,,80,04,335,,1*43
$GAGSV,3,1,09,23,07,321,15,15,66,140,19,03,66,098,,13,55,300,17,7*76
$GAGSV,3,2,09,08,41,192,28,05,23,047,,34,15,130,,26,05,306,,7*74
$GAGSV,3,3,09,31,03,007,,7*4C
$GAGSV,1,1,02,08,41,192,25,15,66,140,18,1*7F
$GBGSV,4,1,13,48,,,19,19,58,238,18,35,52,279,16,29,37,186,23,1*4B
$GBGSV,4,2,13,09,30,076,,06,29,061,,16,27,052,,05,15,118,,1*7F
$GBGSV,4,3,13,32,13,062,,23,10,045,,22,06,240,19,37,06,092,,1*74
$GBGSV,4,4,13,20,69,065,,1*4A
$GBGSV,1,1,04,19,58,238,17,35,52,279,21,29,37,186,25,48,,,23,5*48
$GNGLL,5159.915238,N,00422.398504,E,082513.000,A,D*44
$GNRMC,082514.000,A,5159.915058,N,00422.398618,E,0.46,26.27,160925,,,D,V*3E
$GNVTG,26.27,T,,M,0.46,N,0.85,K,D*18
$GNGGA,082514.000,5159.915058,N,00422.398618,E,2,22,1.12,32.535,M,47.111,M,,*48
$GNGSA,A,3,01,17,06,09,04,,,,,,,,1.41,1.12,0.86,1*05
$GNGSA,A,3,66,81,87,,,,,,,,,,1.41,1.12,0.86,2*0C
$GNGSA,A,3,15,08,,,,,,,,,,,1.41,1.12,0.86,3*07
$GNGSA,A,3,19,35,29,,,,,,,,,,1.41,1.12,0.86,4*09
$GPGSV,4,1,13,03,66,071,,19,41,269,,01,38,138,21,17,37,239,19,1*67
$GPGSV,4,2,13,06,36,305,18,09,33,208,20,04,67,164,18,34,29,191,34,1*60
$GPGSV,4,3,13,31,27,068,,28,17,038,,02,10,141,17,12,04,334,,1*6D
$GPGSV,4,4,13,25,02,001,,1*52
$GPGSV,1,1,04,01,38,138,29,04,67,164,29,06,36,305,20,09,33,208,29,8*60
$GLGSV,2,1,07,66,27,231,27,72,40,045,,81,37,321,18,88,74,213,17,1*7D
$GLGSV,2,2,07,87,17,157,29,73,14,026,,80,04,335,,1*42
$GAGSV,3,1,09,23,07,321,17,15,66,140,19,03,66,098,,13,55,300,17,7*74
$GAGSV,3,2,09,08,41,192,28,05,23,047,,34,15,130,,26,05,306,,7*74
$GAGSV,3,3,09,31,03,007,,7*4C
$GAGSV,1,1,02,08,41,192,25,15,66,140,18,1*7F
$GBGSV,4,1,13,48,,,19,19,58,238,19,35,52,279,15,29,37,186,24,1*4E
$GBGSV,4,2,13,09,30,076,,06,29,061,,16,27,052,,05,15,118,,1*7F
$GBGSV,4,3,13,32,13,062,,23,10,045,,22,06,240,19,37,06,092,,1*74
$GBGSV,4,4,13,20,69,065,,1*4A
$GBGSV,1,1,04,19,58,238,17,35,52,279,21,29,37,186,24,48,,,22,5*48
$GNGLL,5159.915058,N,00422.398618,E,082514.000,A,D*49
$GNRMC,082515.000,A,5159.915172,N,00422.398750,E,0.19,26.27,160925,,,D,V*31
$GNVTG,26.27,T,,M,0.19,N,0.36,K,D*1A
$GNGGA,082515.000,5159.915172,N,00422.398750,E,2,23,1.12,32.502,M,47.111,M,,*48
$GNGSA,A,3,01,17,06,09,04,,,,,,,,1.41,1.12,0.86,1*05
$GNGSA,A,3,66,81,88,87,,,,,,,,,1.41,1.12,0.86,2*0C
$GNGSA,A,3,15,08,,,,,,,,,,,1.41,1.12,0.86,3*07
$GNGSA,A,3,19,35,29,,,,,,,,,,1.41,1.12,0.86,4*09
$GPGSV,4,1,13,03,66,071,,19,41,269,,01,38,138,21,17,37,239,20,1*6D
$GPGSV,4,2,13,06,36,305,20,09,33,208,20,04,67,164,18,34,29,191,34,1*6B
$GPGSV,4,3,13,31,27,068,,28,17,038,,02,10,141,17,12,04,334,,1*6D
$GPGSV,4,4,13,25,02,001,,1*52
$GPGSV,1,1,04,01,38,138,28,04,67,164,29,06,36,305,20,09,33,208,29,8*61
$GLGSV,2,1,07,66,27,231,27,72,40,045,,81,37,321,18,88,74,213,20,1*79
$GLGSV,2,2,07,87,17,157,29,73,14,026,,80,04,335,,1*42
$GAGSV,3,1,09,23,07,321,15,15,66,140,19,03,66,098,,13,55,300,17,7*76
$GAGSV,3,2,09,08,41,192,27,05,23,047,,34,15,130,,26,05,306,,7*7B
$GAGSV,3,3,09,31,03,007,,7*4C
$GAGSV,1,1,02,08,41,192,25,15,66,140,18,1*7F
$GBGSV,4,1,13,48,,,19,19,58,238,20,35,52,277,16,29,37,186,24,1*49
$GBGSV,4,2,13,09,30,076,,06,29,061,,16,27,052,,05,15,118,,1*7F
$GBGSV,4,3,13,32,13,062,,23,10,045,,22,06,240,19,37,06,092,,1*74
$GBGSV,4,4,13,20,69,065,,1*4A
$GBGSV,1,1,04,19,58,238,17,35,52,277,20,29,37,186,23,48,,,21,5*43
$GNGLL,5159.915172,N,00422.398750,E,082515.000,A,D*4C
$GNRMC,082516.000,A,5159.915160,N,00422.398924,E,0.48,26.27,160925,,,D,V*38
$GNVTG,26.27,T,,M,0.48,N,0.90,K,D*12
$GNGGA,082516.000,5159.915160,N,00422.398924,E,2,22,1.12,32.480,M,47.111,M,,*4F
$GNGSA,A,3,01,06,09,04,02,,,,,,,,1.41,1.12,0.86,1*01
$GNGSA,A,3,66,81,87,,,,,,,,,,1.41,1.12,0.86,2*0C
$GNGSA,A,3,15,08,,,,,,,,,,,1.41,1.12,0.86,3*07
$GNGSA,A,3,19,35,29,,,,,,,,,,1.41,1.12,0.86,4*09
$GPGSV,4,1,13,03,66,071,,19,41,269,,01,38,138,22,17,37,239,23,1*6D
$GPGSV,4,2,13,06,36,305,20,09,33,208,20,04,67,164,18,34,29,191,33,1*6C
$GPGSV,4,3,13,31,27,068,,28,17,038,,02,10,141,19,12,04,334,,1*63
$GPGSV,4,4,13,25,02,001,,1*52
$GPGSV,1,1,04,01,38,138,28,04,67,164,28,06,36,305,20,09,33,208,30,8*68
$GLGSV,2,1,07,66,27,231,27,72,40,045,,81,37,321,18,88,74,213,21,1*78
$GLGSV,2,2,07,87,17,157,29,73,14,026,,80,04,335,,1*42
$GAGSV,3,1,09,23,07,321,14,15,66,140,19,03,66,098,,13,55,300,17,7*77
$GAGSV,3,2,09,08,41,192,27,05,23,047,,34,15,130,12,26,05,306,,7*78
$GAGSV,3,3,09,31,03,007,,7*4C
$GAGSV,1,1,02,08,41,192,24,15,66,140,18,1*7E
$GBGSV,4,1,13,48,,,19,19,58,238,20,35,52,277,15,29,37,186,25,1*4B
$GBGSV,4,2,13,09,30,076,,06,29,061,,16,27,052,,05,15,118,,1*7F
$GBGSV,4,3,13,32,13,062,,23,10,045,,22,06,240,19,37,06,092,,1*74
$GBGSV,4,4,13,20,69,065,,1*4A
$GBGSV,1,1,04,19,58,238,17,35,52,277,20,29,37,186,23,48,,,20,5*42
$GNGLL,5159.915160,N,00422.398924,E,082516.000,A,D*41
$GNRMC,082517.000,A,5159.915178,N,00422.399242,E,0.28,26.27,160925,,,D,V*3C
$GNVTG,26.27,T,,M,0.28,N,0.51,K,D*19
$GNGGA,082517.000,5159.915178,N,00422.399242,E,2,25,1.12,32.399,M,47.111,M,,*45
$GNGSA,A,3,01,17,06,09,04,02,,,,,,,1.40,1.12,0.84,1*04
$GNGSA,A,3,66,81,88,87,,,,,,,,,1.40,1.12,0.84,2*0F
$GNGSA,A,3,23,15,08,,,,,,,,,,1.40,1.12,0.84,3*05
$GNGSA,A,3,19,35,29,,,,,,,,,,1.40,1.12,0.84,4*0A
$GPGSV,4,1,13,03,66,071,,19,41,269,14,01,38,138,22,17,37,239,23,1*68
$GPGSV,4,2,13,06,36,305,18,09,33,208,21,04,67,164,19,34,29,191,33,1*67
$GPGSV,4,3,13,31,27,068,,28,17,038,,02,10,141,18,12,04,334,,1*62
$GPGSV,4,4,13,25,02,001,,1*52
$GPGSV,1,1,04,01,38,138,28,04,67,164,28,06,36,305,20,09,33,208,30,8*68
$GLGSV,2,1,07,66,27,231,25,72,40,045,,81,37,321,18,88,74,213,19,1*71
$GLGSV,2,2,07,87,17,157,29,73,14,026,,80,04,335,,1*42
$GAGSV,3,1,09,23,07,321,14,15,66,140,19,03,66,098,,13,55,300,17,7*77
$GAGSV,3,2,09,08,41,192,27,05,23,047,,34,15,130,12,26,05,306,,7*78
$GAGSV,3,3,09,31,03,007,,7*4C
$GAGSV,1,1,02,08,41,192,20,15,66,140,17,1*75
$GBGSV,4,1,13,48,,,19,19,58,238,21,35,52,277,17,29,37,186,26,1*4B
$GBGSV,4,2,13,09,30,076,,06,29,061,,16,27,052,,05,15,118,,1*7F
$GBGSV,4,3,13,32,13,062,,23,10,045,,37,07,092,,22,06,240,18,1*74
$GBGSV,4,4,13,20,69,065,,1*4A
$GBGSV,1,1,04,19,58,238,17,35,52,277,19,29,37,186,23,48,,,20,5*48
$GNGLL,5159.915178,N,00422.399242,E,082517.000,A,D*43
$GNRMC,082518.000,A,5159.915262,N,00422.398870,E,0.52,26.27,160925,,,D,V*3C
$GNVTG,26.27,T,,M,0.52,N,0.96,K,D*1F
$GNGGA,082518.000,5159.915262,N,00422.398870,E,2,25,1.12,32.468,M,47.111,M,,*41
$GNGSA,A,3,19,01,06,04,09,02,,,,,,,1.40,1.12,0.84,1*0A
$GNGSA,A,3,88,81,66,87,,,,,,,,,1.40,1.12,0.84,2*0F
$GNGSA,A,3,15,08,23,,,,,,,,,,1.40,1.12,0.84,3*05
$GNGSA,A,3,19,35,29,,,,,,,,,,1.40,1.12,0.84,4*0A
$GPGSV,4,1,13,03,66,071,,19,41,269,14,01,38,138,22,17,37,239,22,1*69
$GPGSV,4,2,13,06,36,305,18,04,67,164,19,09,33,208,23,34,29,191,33,1*65
$GPGSV,4,3,13,31,27,068,,28,17,038,,02,10,141,18,12,04,334,,1*62
$GPGSV,4,4,13,25,02,001,,1*52
$GPGSV,1,1,04,01,38,138,27,04,67,164,28,06,36,305,18,09,33,208,30,8*6C
$GLGSV,2,1,08,80,04,335,,88,74,213,21,72,40,045,,81,37,321,17,1*71
$GLGSV,2,2,08,66,27,231,28,87,17,157,29,73,14,026,,65,79,256,,1*77
$GAGSV,3,1,09,34,15,130,12,15,66,140,19,03,66,098,,13,55,300,16,7*77
$GAGSV,3,2,09,08,41,192,26,05,23,047,,23,07,321,14,26,05,306,,7*78
$GAGSV,3,3,09,31,03,007,,7*4C
$GAGSV,1,1,02,08,41,192,19,15,66,140,17,1*7F
$GBGSV,4,1,13,48,,,20,19,58,238,22,35,52,277,17,29,37,186,26,1*42
$GBGSV,4,2,13,09,30,076,,06,29,061,,16,27,052,,05,15,118,,1*7F
$GBGSV,4,3,13,32,13,062,,23,10,045,,37,07,092,,22,06,240,18,1*74
$GBGSV,4,4,13,20,69,065,,1*4A
$GBGSV,1,1,04,19,58,238,17,35,52,277,18,29,37,186,22,48,,,20,5*48
$GNGLL,5159.915262,N,00422.398870,E,082518.000,A,D*4E
$GNRMC,082519.000,A,5159.915124,N,00422.399122,E,0.51,26.27,160925,,,D,V*30
$GNVTG,26.27,T,,M,0.51,N,0.94,K,D*1E
$GNGGA,082519.000,5159.915124,N,00422.399122,E,2,25,1.12,32.438,M,47.111,M,,*4B
$GNGSA,A,3,19,01,17,06,04,09,,,,,,,1.40,1.12,0.84,1*0E
$GNGSA,A,3,88,81,66,87,,,,,,,,,1.40,1.12,0.84,2*0F
$GNGSA,A,3,15,08,23,,,,,,,,,,1.40,1.12,0.84,3*05
$GNGSA,A,3,19,35,29,,,,,,,,,,1.40,1.12,0.84,4*0A
$GPGSV,4,1,13,03,66,071,,19,41,269,14,01,38,138,22,17,37,239,22,1*69
$GPGSV,4,2,13,06,36,305,18,04,67,164,19,09,33,208,23,34,29,191,33,1*65
$GPGSV,4,3,13,31,27,068,,28,17,038,,02,10,141,18,12,04,334,,1*62
$GPGSV,4,4,13,25,02,001,,1*52
$GPGSV,1,1,04,01,38,138,27,04,67,164,28,06,36,305,20,09,33,208,30,8*67
$GLGSV,2,1,08,80,04,335,,88,74,213,21,72,40,045,,81,37,321,17,1*71
$GLGSV,2,2,08,66,27,231,26,87,17,157,28,73,14,026,,65,79,256,,1*78
$GAGSV,3,1,09,34,15,130,11,15,66,140,19,03,66,098,,13,55,300,16,7*74
$GAGSV,3,2,09,08,41,192,27,05,23,047,,23,07,321,13,26,05,306,,7*7E
$GAGSV,3,3,09,31,03,007,,7*4C
$GAGSV,1,1,02,08,41,192,21,15,66,140,17,1*74
$GBGSV,3,1,12,48,,,20,19,58,238,22,35,52,277,17,29,37,186,26,1*44
$GBGSV,3,2,12,09,30,076,,06,29,061,,16,27,052,,05,15,118,,1*79
$GBGSV,3,3,12,32,13,062,,23,10,045,,22,06,240,19,20,69,065,,1*75
$GBGSV,1,1,04,19,58,238,17,35,52,277,18,29,37,186,21,48,,,21,5*4A
$GNGLL,5159.915124,N,00422.399122,E,082519.000,A,D*41
$GNRMC,082520.000,A,5159.915076,N,00422.399164,E,0.07,26.27,160925,,,D,V*3D
$GNVTG,26.27,T,,M,0.07,N,0.12,K,D*13
$GNGGA,082520.000,5159.915076,N,00422.399164,E,2,23,1.12,32.424,M,47.111,M,,*4E
$GNGSA,A,3,01,17,06,04,09,,,,,,,,1.41,1.12,0.86,1*05
$GNGSA,A,3,81,66,87,,,,,,,,,,1.41,1.12,0.86,2*0C
$GNGSA,A,3,15,08,23,,,,,,,,,,1.41,1.12,0.86,3*06
$GNGSA,A,3,19,35,29,,,,,,,,,,1.41,1.12,0.86,4*09
$GPGSV,4,1,13,03,66,071,,19,41,269,14,01,38,138,22,17,37,239,22,1*69
$GPGSV,4,2,13,06,36,305,19,04,67,164,18,09,33,208,24,34,29,191,34,1*65
$GPGSV,4,3,13,31,27,068,,28,17,038,,02,10,141,19,12,04,334,,1*63
$GPGSV,4,4,13,25,02,001,,1*52
$GPGSV,1,1,04,01,38,138,27,04,67,164,28,06,36,305,19,09,33,208,30,8*6D
$GLGSV,2,1,08,80,04,335,,88,74,213,21,72,40,045,,81,37,321,17,1*71
$GLGSV,2,2,08,66,27,231,27,87,17,157,29,73,14,026,,65,79,256,,1*78
$GAGSV,3,1,09,34,15,130,,15,66,140,18,03,66,098,,13,55,300,17,7*74
$GAGSV,3,2,09,08,41,192,28,05,23,047,,23,07,321,12,26,05,306,,7*70
$GAGSV,3,3,09,31,03,007,,7*4C
$GAGSV,1,1,02,08,41,192,18,15,66,140,17,1*7E
$GBGSV,4,1,13,48,,,20,19,58,238,22,35,52,277,17,29,37,186,25,1*41
$GBGSV,4,2,13,09,30,076,,06,29,061,,16,27,052,,05,15,118,,1*7F
$GBGSV,4,3,13,32,13,062,,23,10,045,,37,07,092,,22,06,240,19,1*75
$GBGSV,4,4,13,20,69,065,,1*4A
$GBGSV,1,1,04,19,58,238,17,35,52,277,18,29,37,186,21,48,,,21,5*4A
$GNGLL,5159.915076,N,00422.399164,E,082520.000,A,D*4F
$GNRMC,082521.000,A,5159.915112,N,00422.399230,E,0.14,26.27,160925,,,D,V*3F
$GNVTG,26.27,T,,M,0.14,N,0.26,K,D*16
$GNGGA,082521.000,5159.915112,N,00422.399230,E,2,23,1.12,32.410,M,47.111,M,,*49
$GNGSA,A,3,01,17,06,04,09,02,,,,,,,1.41,1.12,0.86,1*07
$GNGSA,A,3,81,66,87,,,,,,,,,,1.41,1.12,0.86,2*0C
$GNGSA,A,3,15,08,,,,,,,,,,,1.41,1.12,0.86,3*07
$GNGSA,A,3,19,35,29,,,,,,,,,,1.41,1.12,0.86,4*09
$GPGSV,4,1,13,03,66,071,,19,41,269,14,01,38,138,21,17,37,239,22,1*6A
$GPGSV,4,2,13,06,36,305,21,04,67,164,17,09,33,208,25,34,29,191,34,1*60
$GPGSV,4,3,13,31,27,068,,28,17,038,,02,10,141,19,12,04,334,,1*63
$GPGSV,4,4,13,25,02,001,,1*52
$GPGSV,1,1,04,01,38,138,27,04,67,164,28,06,36,305,20,09,33,208,30,8*67
$GLGSV,2,1,08,80,04,335,,88,74,213,22,72,40,045,,81,37,321,17,1*72
$GLGSV,2,2,08,66,27,231,26,87,17,157,28,73,14,026,,65,79,256,,1*78
$GAGSV,3,1,09,34,15,130,,15,66,140,18,03,66,098,,13,55,300,17,7*74
$GAGSV,3,2,09,08,41,192,29,05,23,047,,23,07,321,11,26,05,306,,7*72
$GAGSV,3,3,09,31,03,007,,7*4C
$GAGSV,1,1,03,08,41,192,16,15,66,140,17,23,07,321,10,1*46
$GBGSV,4,1,13,48,,,19,19,58,238,22,35,52,277,16,29,37,186,25,1*4A
$GBGSV,4,2,13,09,30,076,,06,29,061,,16,27,052,,05,15,118,,1*7F
$GBGSV,4,3,13,32,13,062,,23,10,045,,37,07,092,,22,06,240,20,1*7F
$GBGSV,4,4,13,20,69,065,,1*4A
$GBGSV,1,1,04,19,58,238,16,35,52,277,18,29,37,186,22,48,,,22,5*4B
$GNGLL,5159.915112,N,00422.399230,E,082521.000,A,D*4F
$GNRMC,082522.000,A,5159.915160,N,00422.399386,E,0.32,26.27,160925,,,D,V*31
$GNVTG,26.27,T,,M,0.32,N,0.59,K,D*1A
$GNGGA,082522.000,5159.915160,N,00422.399386,E,2,23,1.12,32.409,M,47.111,M,,*4B
$GNGSA,A,3,19,01,06,04,09,,,,,,,,1.41,1.12,0.86,1*0B
$GNGSA,A,3,88,81,66,87,,,,,,,,,1.41,1.12,0.86,2*0C
$GNGSA,A,3,15,08,,,,,,,,,,,1.41,1.12,0.86,3*07
$GNGSA,A,3,19,35,29,,,,,,,,,,1.41,1.12,0.86,4*09
$GPGSV,4,1,13,03,66,071,,19,41,269,14,01,38,138,20,17,37,239,23,1*6A
$GPGSV,4,2,13,06,36,305,22,04,67,164,17,09,33,208,25,34,29,191,34,1*63
$GPGSV,4,3,13,31,27,068,,28,17,038,,02,10,141,19,12,04,334,,1*63
$GPGSV,4,4,13,25,02,001,,1*52
$GPGSV,1,1,04,01,38,138,27,04,67,164,27,06,36,305,20,09,33,208,29,8*60
$GLGSV,2,1,08,80,04,335,,88,74,213,23,72,40,045,,81,37,321,17,1*73
$GLGSV,2,2,08,66,27,231,24,87,17,157,29,73,14,026,,65,79,256,,1*7B
$GAGSV,3,1,09,34,15,130,,15,66,140,17,03,66,098,,13,55,300,17,7*7B
$GAGSV,3,2,09,08,41,192,29,05,23,047,,23,07,321,10,26,05,306,,7*73
$GAGSV,3,3,09,31,03,007,,7*4C
$GAGSV,1,1,03,08,41,192,19,15,66,140,16,23,07,321,09,1*40
$GBGSV,4,1,13,48,,,19,19,58,238,23,35,52,277,17,29,37,186,24,1*4B
$GBGSV,4,2,13,09,30,076,,06,29,061,,16,27,052,,05,15,118,,1*7F
$GBGSV,4,3,13,32,13,062,,23,10,045,,37,07,092,,22,06,240,21,1*7E
$GBGSV,4,4,13,20,69,065,,1*4A
$GBGSV,1,1,04,19,58,238,16,35,52,277,17,29,37,186,22,48,,,22,5*44
$GNGLL,5159.915160,N,00422.399386,E,082522.000,A,D*45
$GNRMC,082523.000,A,5159.915298,N,00422.399410,E,0.69,3.84,160925,,,D,V*0C
$GNVTG,3.84,T,,M,0.69,N,1.28,K,D*2D
$GNGGA,082523.000,5159.915298,N,00422.399410,E,2,22,1.12,32.399,M,47.111,M,,*49
$GNGSA,A,3,01,17,06,09,04,,,,,,,,1.41,1.12,0.86,1*05
$GNGSA,A,3,66,81,87,,,,,,,,,,1.41,1.12,0.86,2*0C
$GNGSA,A,3,15,08,,,,,,,,,,,1.41,1.12,0.86,3*07
$GNGSA,A,3,19,35,29,,,,,,,,,,1.41,1.12,0.86,4*09
$GPGSV,4,1,13,03,66,071,,19,41,269,15,01,38,138,20,17,37,239,23,1*6B
$GPGSV,4,2,13,06,36,305,22,09,33,208,24,04,67,164,17,34,29,191,34,1*62
$GPGSV,4,3,13,31,27,068,,28,17,038,,02,10,141,18,12,04,334,,1*62
$GPGSV,4,4,13,25,02,001,,1*52
$GPGSV,1,1,04,01,38,138,27,04,67,164,27,06,36,305,20,09,33,208,28,8*61
$GLGSV,2,1,07,66,27,231,23,72,40,045,,81,37,321,17,88,74,213,23,1*71
$GLGSV,2,2,07,87,17,157,29,73,14,026,,80,04,335,,1*42
$GAGSV,3,1,09,23,07,321,10,15,66,140,17,03,66,098,,13,55,300,17,7*7D
$GAGSV,3,2,09,08,41,192,29,05,23,047,,34,15,130,,26,05,306,,7*75
$GAGSV,3,3,09,31,03,007,,7*4C
$GAGSV,1,1,03,08,41,192,20,15,66,140,16,23,07,321,08,1*4B
$GBGSV,4,1,13,48,,,19,19,58,238,23,35,52,277,18,29,37,186,24,1*44
$GBGSV,4,2,13,09,30,076,,06,29,061,,16,27,052,,05,15,118,,1*7F
$GBGSV,4,3,13,32,13,062,,23,10,045,,37,07,092,,22,06,240,21,1*7E
$GBGSV,4,4,13,20,69,065,,1*4A
$GBGSV,1,1,04,19,58,238,16,35,52,277,16,29,37,186,21,48,,,22,5*46
$GNGLL,5159.915298,N,00422.399410,E,082523.000,A,D*48
$GNRMC,082524.000,A,5159.915364,N,00422.399536,E,0.27,3.84,160925,,,D,V*06
$GNVTG,3.84,T,,M,0.27,N,0.50,K,D*29
$GNGGA,082524.000,5159.915364,N,00422.399536,E,2,23,1.12,32.392,M,47.111,M,,*43
$GNGSA,A,3,01,17,06,09,04,02,,,,,,,1.41,1.12,0.86,1*07
$GNGSA,A,3,66,81,87,,,,,,,,,,1.41,1.12,0.86,2*0C
$GNGSA,A,3,15,08,,,,,,,,,,,1.41,1.12,0.86,3*07
$GNGSA,A,3,19,35,29,,,,,,,,,,1.41,1.12,0.86,4*09
$GPGSV,4,1,13,03,66,071,,19,41,269,16,01,38,138,20,17,37,239,23,1*68
$GPGSV,4,2,13,06,36,305,23,09,33,208,24,04,67,164,18,34,29,191,34,1*6C
$GPGSV,4,3,13,31,27,068,,28,17,038,,02,10,141,18,12,04,334,,1*62
$GPGSV,4,4,13,25,02,001,,1*52
$GPGSV,1,1,04,01,38,138,27,04,67,164,27,06,36,305,21,09,33,208,28,8*60
$GLGSV,2,1,07,66,27,231,24,72,40,045,,81,37,321,16,88,74,213,23,1*77
$GLGSV,2,2,07,87,17,157,29,73,14,026,,80,04,335,,1*42
$GAGSV,3,1,09,23,07,321,10,15,66,140,16,03,66,098,,13,55,300,17,7*7C
$GAGSV,3,2,09,08,41,192,29,05,23,047,,34,15,130,,26,05,306,,7*75
$GAGSV,3,3,09,31,03,007,,7*4C
$GAGSV,1,1,03,08,41,192,21,15,66,140,16,23,07,321,07,1*45
$GBGSV,4,1,13,48,,,19,19,58,238,24,35,52,277,19,29,37,186,25,1*43
$GBGSV,4,2,13,09,30,076,,06,29,061,,16,27,052,,05,15,118,,1*7F
$GBGSV,4,3,13,32,13,062,,23,10,045,,37,07,092,,22,06,240,21,1*7E
$GBGSV,4,4,13,20,69,065,,1*4A
$GBGSV,1,1,04,19,58,238,16,35,52,277,15,29,37,186,22,48,,,21,5*45
$GNGLL,5159.915364,N,00422.399536,E,082524.000,A,D*48
$GNRMC,082525.000,A,5159.915298,N,00422.399464,E,0.21,3.84,160925,,,D,V*05
$GNVTG,3.84,T,,M,0.21,N,0.40,K,D*2E
$GNGGA,082525.000,5159.915298,N,00422.399464,E,2,24,1.12,32.380,M,47.111,M,,*42
$GNGSA,A,3,19,01,17,06,09,04,02,,,,,,1.41,1.12,0.86,1*0F
$GNGSA,A,3,66,81,87,,,,,,,,,,1.41,1.12,0.86,2*0C
$GNGSA,A,3,15,08,,,,,,,,,,,1.41,1.12,0.86,3*07
$GNGSA,A,3,19,35,29,,,,,,,,,,1.41,1.12,0.86,4*09
$GPGSV,4,1,13,03,66,071,,19,41,269,16,01,38,138,20,17,37,239,23,1*68
$GPGSV,4,2,13,06,36,305,23,09,33,208,25,04,67,164,19,34,29,191,34,1*6C
$GPGSV,4,3,13,31,27,068,,28,17,038,,02,10,141,19,12,04,334,,1*63
$GPGSV,4,4,13,25,02,001,,1*52
$GPGSV,1,1,04,01,38,138,27,04,67,164,27,06,36,305,20,09,33,208,28,8*61
$GLGSV,2,1,07,66,27,231,25,72,40,045,,81,37,321,13,88,74,213,23,1*73
$GLGSV,2,2,07,87,17,157,29,73,14,026,,80,04,335,,1*42
$GAGSV,3,1,09,23,07,321,10,15,66,140,15,03,66,098,,13,55,300,18,7*70
$GAGSV,3,2,09,08,41,192,29,05,23,047,,34,15,130,,26,05,306,,7*75
$GAGSV,3,3,09,31,03,007,,7*4C
$GAGSV,1,1,03,08,41,192,20,15,66,140,17,23,07,321,06,1*44
$GBGSV,4,1,13,48,,,18,19,58,238,24,35,52,277,19,29,37,186,25,1*42
$GBGSV,4,2,13,09,30,076,,06,29,061,,16,27,052,,05,15,118,,1*7F
$GBGSV,4,3,13,32,13,062,,23,10,045,,37,07,092,,22,06,240,21,1*7E
$GBGSV,4,4,13,20,69,065,,1*4A
$GBGSV,1,1,04,19,58,238,16,35,52,277,14,29,37,186,21,48,,,21,5*47
$GNGLL,5159.915298,N,00422.399464,E,082525.000,A,D*4D
$GNRMC,082526.000,A,5159.915310,N,00422.399326,E,0.45,3.84,160925,,,D,V*04
$GNVTG,3.84,T,,M,0.45,N,0.84,K,D*24
$GNGGA,082526.000,5159.915310,N,00422.399326,E,2,23,1.12,32.367,M,47.111,M,,*4F
$GNGSA,A,3,19,01,06,09,04,02,,,,,,,1.41,1.12,0.86,1*09
$GNGSA,A,3,66,81,87,,,,,,,,,,1.41,1.12,0.86,2*0C
