$GNRMC,092401.000,A,5200.305112,N,00433.779964,E,0.03,0.00,170925,,,D,V*0F
$PQTMVERNO,LC29HAANR11A03S,2023/12/14,10:12:35*34
$GNVTG,0.00,T,,M,0.03,N,0.05,K,D*20
$GNGGA,092401.000,5200.305112,N,00433.779964,E,2,59,0.44,0.154,M,47.116,M,,*73
$GNGSA,A,3,09,06,03,11,04,19,31,17,01,07,,,0.76,0.44,0.62,1*06
$GNGSA,A,3,66,67,81,83,76,68,82,,,,,,0.76,0.44,0.62,2*01
$GNGSA,A,3,04,09,36,34,06,05,11,,,,,,0.76,0.44,0.62,3*0A
$GNGSA,A,3,32,29,06,35,39,19,23,30,05,25,37,20,0.76,0.44,0.62,4*0F
$GPGSV,4,1,13,09,64,215,39,06,61,285,33,03,39,094,48,49,30,179,42,1*65
$GPGSV,4,2,13,11,25,311,42,04,69,075,42,19,24,239,40,31,19,040,37,1*65
$GPGSV,4,3,13,17,13,220,43,01,10,147,49,07,07,173,45,26,04,062,30,1*6E
$GPGSV,4,4,13,21,03,279,26,1*5E
$GPGSV,2,1,08,21,03,279,44,06,61,285,49,03,39,094,52,11,25,311,48,8*62
$GPGSV,2,2,08,01,10,147,48,04,69,075,49,26,04,062,48,09,64,215,36,8*6F
$GLGSV,3,1,09,74,04,352,35,66,61,040,52,67,53,259,33,81,40,189,36,1*73
$GLGSV,3,2,09,83,23,328,41,75,21,039,45,76,12,096,45,68,06,245,44,1*7B
$GLGSV,3,3,09,82,64,273,40,1*4B
$GAGSV,2,1,08,04,23,052,45,09,71,085,42,36,61,167,40,34,56,297,34,7*76
$GAGSV,2,2,08,06,47,061,33,05,46,212,41,11,14,145,37,23,,,43,7*4D
$GAGSV,2,1,08,04,23,052,47,09,71,085,51,36,61,167,48,34,56,297,37,1*7B
$GAGSV,2,2,08,06,47,061,50,05,46,212,42,11,14,145,48,23,,,45,1*43
$GBGSV,4,1,14,16,,,38,32,48,070,48,29,45,240,37,06,31,052,44,1*47
$GBGSV,4,2,14,35,26,313,32,39,23,038,42,19,21,255,35,23,20,081,44,1*74
$GBGSV,4,3,14,30,18,188,30,05,15,118,36,25,12,032,43,37,09,128,44,1*74
$GBGSV,4,4,14,09,,,36,20,70,263,34,1*4A
$GBGSV,3,1,10,37,09,128,47,32,48,070,45,29,45,240,43,35,26,313,39,5*7D
$GBGSV,3,2,10,39,23,038,48,19,21,255,43,23,20,081,50,30,18,188,48,5*78
$GBGSV,3,3,10,25,12,032,42,20,70,263,44,5*72
$GNGLL,5200.305112,N,00433.779964,E,092401.000,A,D*49
$GNRMC,092402.000,A,5200.305094,N,00433.779928,E,0.03,0.00,170925,,,D,V*0B
$GNVTG,0.00,T,,M,0.03,N,0.06,K,D*23
$GNGGA,092402.000,5200.305094,N,00433.779928,E,2,59,0.44,0.059,M,47.116,M,,*7B
$GNGSA,A,3,09,06,03,11,04,19,31,17,01,07,,,0.77,0.44,0.63,1*06
$GNGSA,A,3,66,67,81,83,76,68,82,,,,,,0.77,0.44,0.63,2*01
$GNGSA,A,3,04,09,36,34,06,05,11,,,,,,0.77,0.44,0.63,3*0A
$GNGSA,A,3,32,29,06,35,39,19,23,30,05,25,37,20,0.77,0.44,0.63,4*0F
$GPGSV,4,1,13,09,64,215,39,06,61,285,33,03,39,094,48,49,30,179,42,1*65
$GPGSV,4,2,13,11,25,311,42,04,69,075,42,19,24,239,40,31,19,040,37,1*65
$GPGSV,4,3,13,17,13,220,43,01,10,147,49,07,07,173,45,26,04,062,30,1*6E
$GPGSV,4,4,13,21,03,279,,1*5A
$GPGSV,2,1,08,21,03,279,44,06,61,285,49,03,39,094,52,11,25,311,48,8*62
$GPGSV,2,2,08,01,10,147,48,04,69,075,49,26,04,062,48,09,64,215,35,8*6C
$GLGSV,3,1,09,74,04,352,35,66,61,040,52,67,53,259,33,81,40,189,36,1*73
$GLGSV,3,2,09,83,23,328,41,75,21,039,45,76,12,096,45,68,06,245,44,1*7B
$GLGSV,3,3,09,82,64,273,40,1*4B
$GAGSV,2,1,08,04,23,052,45,09,71,085,42,36,61,167,40,34,56,297,34,7*76
$GAGSV,2,2,08,06,47,061,34,05,46,212,41,11,14,145,38,23,,,43,7*45
$GAGSV,2,1,08,04,23,052,47,09,71,085,51,36,61,167,48,34,56,297,37,1*7B
$GAGSV,2,2,08,06,47,061,50,05,46,212,42,11,14,145,48,23,,,45,1*43
$GBGSV,4,1,14,16,,,38,32,48,070,48,29,45,240,37,06,31,052,44,1*47
$GBGSV,4,2,14,35,26,313,32,39,23,038,42,19,21,255,35,23,20,081,44,1*74
$GBGSV,4,3,14,30,18,188,30,05,15,118,36,25,12,032,43,37,09,128,44,1*74
$GBGSV,4,4,14,09,,,36,20,70,263,34,1*4A
$GBGSV,3,1,10,37,09,128,47,32,48,070,45,29,45,240,43,35,26,313,39,5*7D
$GBGSV,3,2,10,39,23,038,48,19,21,255,43,23,20,081,50,30,18,188,48,5*78
$GBGSV,3,3,10,25,12,032,43,20,70,263,44,5*73
$GNGLL,5200.305094,N,00433.779928,E,092402.000,A,D*4D
$GNRMC,092403.000,A,5200.305094,N,00433.779904,E,0.03,0.00,170925,,,D,V*04
$GNVTG,0.00,T,,M,0.03,N,0.05,K,D*20
$GNGGA,092403.000,5200.305094,N,00433.779904,E,2,59,0.44,-0.019,M,47.117,M,,*5C
$GNGSA,A,3,09,06,03,11,04,19,31,17,01,07,,,0.76,0.44,0.62,1*06
$GNGSA,A,3,66,67,81,83,76,68,82,,,,,,0.76,0.44,0.62,2*01
$GNGSA,A,3,04,09,36,34,06,05,11,,,,,,0.76,0.44,0.62,3*0A
$GNGSA,A,3,32,29,06,35,39,19,23,30,05,25,37,20,0.76,0.44,0.62,4*0F
$GPGSV,4,1,13,09,64,215,39,06,61,285,34,03,39,094,48,49,30,179,42,1*62
$GPGSV,4,2,13,11,25,311,42,04,69,075,42,19,24,239,40,31,19,040,37,1*65
$GPGSV,4,3,13,17,13,220,43,01,10,147,49,07,07,173,45,26,04,062,29,1*66
$GPGSV,4,4,13,21,03,279,,1*5A
$GPGSV,2,1,08,21,03,279,44,06,61,285,49,03,39,094,52,11,25,311,48,8*62
$GPGSV,2,2,08,01,10,147,48,04,69,075,49,26,04,062,48,09,64,215,35,8*6C
$GLGSV,3,1,09,74,04,352,35,66,61,040,52,67,53,259,33,81,40,189,36,1*73
$GLGSV,3,2,09,83,23,328,41,75,21,039,45,76,12,096,45,68,06,245,44,1*7B
$GLGSV,3,3,09,82,64,273,40,1*4B
$GAGSV,2,1,08,04,23,052,45,09,71,085,42,36,61,167,40,34,56,297,34,7*76
$GAGSV,2,2,08,06,47,061,34,05,46,212,41,11,14,145,38,23,,,42,7*44
$GAGSV,2,1,08,04,23,052,47,09,71,085,51,36,61,167,48,34,56,297,37,1*7B
$GAGSV,2,2,08,06,47,061,50,05,46,212,42,11,14,145,48,23,,,45,1*43
$GBGSV,4,1,14,16,,,38,32,48,070,48,29,45,240,37,06,31,052,44,1*47
$GBGSV,4,2,14,35,26,313,32,39,23,038,42,19,21,255,35,23,20,081,43,1*73
$GBGSV,4,3,14,30,18,188,30,05,15,118,36,25,12,032,43,37,09,128,44,1*74
$GBGSV,4,4,14,09,,,36,20,70,263,34,1*4A
$GBGSV,3,1,10,37,09,128,47,32,48,070,45,29,45,240,43,35,26,313,39,5*7D
$GBGSV,3,2,10,39,23,038,48,19,21,255,43,23,20,081,50,30,18,188,48,5*78
$GBGSV,3,3,10,25,12,032,43,20,70,263,44,5*73
$GNGLL,5200.305094,N,00433.779904,E,092403.000,A,D*42
$GNRMC,092404.000,A,5200.305100,N,00433.779898,E,0.02,0.00,170925,,,D,V*0A
$GNVTG,0.00,T,,M,0.02,N,0.04,K,D*20
$GNGGA,092404.000,5200.305100,N,00433.779898,E,2,59,0.44,-0.090,M,47.117,M,,*52
$GNGSA,A,3,09,06,03,11,04,19,31,17,01,07,,,0.77,0.44,0.63,1*06
$GNGSA,A,3,66,67,81,83,76,68,82,,,,,,0.77,0.44,0.63,2*01
$GNGSA,A,3,04,09,36,34,06,05,11,,,,,,0.77,0.44,0.63,3*0A
$GNGSA,A,3,32,29,06,35,39,19,23,30,05,25,37,20,0.77,0.44,0.63,4*0F
$GPGSV,4,1,13,09,64,215,39,06,61,285,34,03,39,094,48,49,30,179,42,1*62
$GPGSV,4,2,13,11,25,311,42,04,69,075,42,19,24,239,40,31,19,040,37,1*65
$GPGSV,4,3,13,17,13,220,43,01,10,147,49,07,07,173,45,26,04,062,28,1*67
$GPGSV,4,4,13,21,03,279,,1*5A
$GPGSV,2,1,08,21,03,279,44,06,61,285,49,03,39,094,52,11,25,311,48,8*62
$GPGSV,2,2,08,01,10,147,48,04,69,075,49,26,04,062,48,09,64,215,35,8*6C
$GLGSV,3,1,09,74,04,352,35,66,61,040,52,67,53,259,33,81,40,189,37,1*72
$GLGSV,3,2,09,83,23,328,41,75,21,039,45,76,12,096,45,68,06,245,44,1*7B
$GLGSV,3,3,09,82,64,273,40,1*4B
$GAGSV,2,1,08,04,23,052,45,09,71,085,42,36,61,167,40,34,56,297,34,7*76
$GAGSV,2,2,08,06,47,061,33,05,46,212,41,11,14,145,38,23,,,42,7*43
$GAGSV,2,1,08,04,23,052,47,09,71,085,51,36,61,167,48,34,56,297,37,1*7B
$GAGSV,2,2,08,06,47,061,50,05,46,212,42,11,14,145,48,23,,,44,1*42
$GBGSV,4,1,14,16,,,39,32,48,070,48,29,45,240,37,06,31,052,44,1*46
$GBGSV,4,2,14,35,26,313,32,39,23,038,42,19,21,255,35,23,20,081,42,1*72
$GBGSV,4,3,14,30,18,188,30,05,15,118,36,25,12,032,43,37,09,128,44,1*74
$GBGSV,4,4,14,09,,,36,20,70,263,34,1*4A
$GBGSV,3,1,10,37,09,128,47,32,48,070,45,29,45,240,43,35,26,313,39,5*7D
$GBGSV,3,2,10,39,23,038,48,19,21,255,43,23,20,081,50,30,18,188,48,5*78
$GBGSV,3,3,10,25,12,032,43,20,70,263,44,5*73
$GNGLL,5200.305100,N,00433.779898,E,092404.000,A,D*4D
$GNRMC,092405.000,A,5200.305100,N,00433.779874,E,0.02,0.00,170925,,,D,V*09
$GNVTG,0.00,T,,M,0.02,N,0.04,K,D*20
$GNGGA,092405.000,5200.305100,N,00433.779874,E,2,59,0.44,-0.170,M,47.117,M,,*5E
$GNGSA,A,3,09,06,03,11,04,19,31,17,01,07,,,0.77,0.44,0.63,1*06
$GNGSA,A,3,66,67,81,83,76,68,82,,,,,,0.77,0.44,0.63,2*01
$GNGSA,A,3,04,09,36,34,06,05,11,,,,,,0.77,0.44,0.63,3*0A
$GNGSA,A,3,32,29,06,35,39,19,23,30,05,25,37,20,0.77,0.44,0.63,4*0F
$GPGSV,4,1,13,09,64,215,39,06,61,285,34,03,39,094,48,49,30,179,42,1*62
$GPGSV,4,2,13,11,25,311,42,04,69,075,42,19,24,239,40,31,19,040,37,1*65
$GPGSV,4,3,13,17,13,220,43,01,10,147,49,07,07,173,45,26,04,062,28,1*67
$GPGSV,4,4,13,21,03,279,25,1*5D
$GPGSV,2,1,08,21,03,279,44,06,61,285,49,03,39,094,52,11,25,311,48,8*62
$GPGSV,2,2,08,01,10,147,48,04,69,075,49,26,04,062,48,09,64,215,35,8*6C
$GLGSV,3,1,09,74,04,352,35,66,61,040,52,67,53,259,33,81,40,189,37,1*72
$GLGSV,3,2,09,83,23,328,41,75,21,039,45,76,12,096,45,68,06,245,44,1*7B
$GLGSV,3,3,09,82,64,273,40,1*4B
$GAGSV,2,1,08,04,23,052,45,09,71,085,42,36,61,167,40,34,56,297,34,7*76
$GAGSV,2,2,08,06,47,061,33,05,46,212,41,11,14,145,38,23,,,41,7*40
$GAGSV,2,1,08,04,23,052,47,09,71,085,51,36,61,167,48,34,56,297,37,1*7B
$GAGSV,2,2,08,06,47,061,50,05,46,212,42,11,14,145,48,23,,,44,1*42
$GBGSV,4,1,14,16,,,39,32,48,070,48,29,45,240,37,06,31,052,44,1*46
$GBGSV,4,2,14,35,26,313,32,39,23,038,42,19,21,255,35,23,20,081,43,1*73
$GBGSV,4,3,14,30,18,188,30,05,15,118,36,25,12,032,43,37,09,128,44,1*74
$GBGSV,4,4,14,09,,,36,20,70,263,34,1*4A
$GBGSV,3,1,10,37,09,128,47,32,48,070,45,29,45,240,43,35,26,313,39,5*7D
$GBGSV,3,2,10,39,23,038,48,19,21,255,43,23,20,081,50,30,18,188,48,5*78
$GBGSV,3,3,10,25,12,032,43,20,70,263,44,5*73
$GNGLL,5200.305100,N,00433.779874,E,092405.000,A,D*4E
$GNRMC,092406.000,A,5200.305118,N,00433.779862,E,0.02,0.00,170925,,,D,V*04
$GNVTG,0.00,T,,M,0.02,N,0.03,K,D*27
$GNGGA,092406.000,5200.305118,N,00433.779862,E,2,60,0.43,-0.250,M,47.117,M,,*5F
$GNGSA,A,3,09,06,03,11,04,19,31,17,01,07,,,0.76,0.43,0.62,1*01
$GNGSA,A,3,66,67,81,83,75,76,68,82,,,,,0.76,0.43,0.62,2*04
$GNGSA,A,3,04,09,36,34,06,05,11,,,,,,0.76,0.43,0.62,3*0D
$GNGSA,A,3,32,29,06,35,39,19,23,30,05,25,37,20,0.76,0.43,0.62,4*08
$GPGSV,4,1,13,09,64,215,39,06,61,285,33,03,39,094,48,49,30,179,42,1*65
$GPGSV,4,2,13,11,25,311,42,04,69,075,42,19,24,239,40,31,19,040,37,1*65
$GPGSV,4,3,13,17,13,220,43,01,10,147,49,07,07,173,45,26,04,062,27,1*68
$GPGSV,4,4,13,21,03,279,24,1*5C
$GPGSV,2,1,08,21,03,279,44,06,61,285,49,03,39,094,52,11,25,311,48,8*62
$GPGSV,2,2,08,01,10,147,48,04,69,075,49,26,04,062,48,09,64,215,35,8*6C
$GLGSV,3,1,09,74,04,352,35,66,61,040,52,67,53,259,32,81,40,189,37,1*73
$GLGSV,3,2,09,83,23,328,41,75,21,039,45,76,12,096,45,68,06,245,44,1*7B
$GLGSV,3,3,09,82,64,273,40,1*4B
$GAGSV,2,1,08,04,23,052,45,09,71,085,42,36,61,167,40,34,56,297,34,7*76
$GAGSV,2,2,08,06,47,061,32,05,46,212,41,11,14,145,38,23,,,41,7*41
$GAGSV,2,1,08,04,23,052,47,09,71,085,51,36,61,167,48,34,56,297,37,1*7B
$GAGSV,2,2,08,06,47,061,50,05,46,212,42,11,14,145,48,23,,,43,1*45
$GBGSV,4,1,15,16,,,39,32,48,070,48,29,45,240,37,06,31,052,44,1*47
$GBGSV,4,2,15,35,26,313,32,39,23,038,42,19,21,255,36,23,20,081,43,1*71
$GBGSV,4,3,15,30,18,188,30,05,15,118,36,25,12,032,43,37,09,128,44,1*75
$GBGSV,4,4,15,09,,,36,48,,,30,20,70,263,34,1*44
$GBGSV,3,1,10,37,09,128,47,32,48,070,45,29,45,240,43,35,26,313,38,5*7C
$GBGSV,3,2,10,39,23,038,48,19,21,255,43,23,20,081,50,30,18,188,48,5*78
$GBGSV,3,3,10,25,12,032,43,20,70,263,44,5*73
$GNGLL,5200.305118,N,00433.779862,E,092406.000,A,D*43
$GNRMC,092407.000,A,5200.305124,N,00433.779832,E,0.01,0.00,170925,,,D,V*0C
$GNVTG,0.00,T,,M,0.01,N,0.03,K,D*24
$GNGGA,092407.000,5200.305124,N,00433.779832,E,2,60,0.43,-0.301,M,47.117,M,,*51
$GNGSA,A,3,09,06,03,11,04,19,31,17,01,07,,,0.76,0.43,0.62,1*01
$GNGSA,A,3,66,67,81,83,75,76,68,82,,,,,0.76,0.43,0.62,2*04
$GNGSA,A,3,04,09,36,34,06,05,11,,,,,,0.76,0.43,0.62,3*0D
$GNGSA,A,3,32,29,06,35,39,19,23,30,05,25,37,20,0.76,0.43,0.62,4*08
$GPGSV,4,1,13,09,64,215,39,06,61,285,33,03,39,094,48,49,30,179,42,1*65
$GPGSV,4,2,13,11,25,311,42,04,69,075,42,19,24,239,40,31,19,040,37,1*65
$GPGSV,4,3,13,17,13,220,43,01,10,147,49,07,07,173,46,26,04,062,27,1*6B
$GPGSV,4,4,13,21,03,279,23,1*5B
$GPGSV,2,1,08,21,03,279,44,06,61,285,49,03,39,094,52,11,25,311,48,8*62
$GPGSV,2,2,08,01,10,147,48,04,69,075,49,26,04,062,48,09,64,215,35,8*6C
$GLGSV,3,1,09,74,04,352,35,66,61,040,52,67,53,259,32,81,40,189,38,1*7C
$GLGSV,3,2,09,83,23,328,41,75,21,039,45,76,12,096,45,68,06,245,44,1*7B
$GLGSV,3,3,09,82,64,273,40,1*4B
$GAGSV,2,1,08,04,23,052,45,09,71,085,42,36,61,167,40,34,56,297,34,7*76
$GAGSV,2,2,08,06,47,061,32,05,46,212,41,11,14,145,38,23,,,41,7*41
$GAGSV,2,1,08,04,23,052,46,09,71,085,51,36,61,167,48,34,56,297,37,1*7A
$GAGSV,2,2,08,06,47,061,50,05,46,212,42,11,14,145,48,23,,,42,1*44
$GBGSV,4,1,15,16,,,39,32,48,070,48,29,45,240,37,06,31,052,44,1*47
$GBGSV,4,2,15,35,26,313,32,39,23,038,42,19,21,255,36,23,20,081,43,1*71
$GBGSV,4,3,15,30,18,188,30,05,15,118,36,25,12,032,43,37,09,128,44,1*75
$GBGSV,4,4,15,09,,,36,48,,,31,20,70,263,34,1*45
$GBGSV,3,1,11,48,,,46,32,48,070,45,29,45,240,43,35,26,313,38,5*46
$GBGSV,3,2,11,39,23,038,48,19,21,255,43,23,20,081,50,30,18,188,48,5*79
$GBGSV,3,3,11,25,12,032,43,37,09,128,47,20,70,263,44,5*47
$GNGLL,5200.305124,N,00433.779832,E,092407.000,A,D*48
$GNRMC,092408.000,A,5200.305130,N,00433.779820,E,0.01,0.00,170925,,,D,V*05
$GNVTG,0.00,T,,M,0.01,N,0.03,K,D*24
$GNGGA,092408.000,5200.305130,N,00433.779820,E,2,60,0.43,-0.327,M,47.117,M,,*5C
$GNGSA,A,3,09,06,03,11,04,19,31,17,01,07,,,0.76,0.43,0.62,1*01
$GNGSA,A,3,66,67,81,83,75,76,68,82,,,,,0.76,0.43,0.62,2*04
$GNGSA,A,3,04,09,36,34,06,05,11,,,,,,0.76,0.43,0.62,3*0D
$GNGSA,A,3,32,29,06,35,39,19,23,30,05,25,37,20,0.76,0.43,0.62,4*08
$GPGSV,4,1,13,09,64,215,39,06,61,285,33,03,39,094,48,49,30,179,42,1*65
$GPGSV,4,2,13,11,25,311,42,04,69,075,42,19,24,239,40,31,19,040,37,1*65
$GPGSV,4,3,13,17,13,220,43,01,10,147,49,07,07,173,47,26,04,062,27,1*6A
$GPGSV,4,4,13,21,03,279,24,1*5C
$GPGSV,2,1,08,21,03,279,45,06,61,285,49,03,39,094,52,11,25,311,48,8*63
$GPGSV,2,2,08,01,10,147,48,04,69,075,49,26,04,062,48,09,64,215,35,8*6C
$GLGSV,3,1,09,74,04,352,35,66,61,040,52,67,53,259,32,81,40,189,38,1*7C
$GLGSV,3,2,09,83,23,328,41,75,21,039,45,76,12,096,45,68,06,245,44,1*7B
$GLGSV,3,3,09,82,64,273,39,1*45
$GAGSV,2,1,08,04,23,052,45,09,71,085,42,36,61,167,40,34,56,297,34,7*76
$GAGSV,2,2,08,06,47,061,32,05,46,212,41,11,14,145,38,23,,,40,7*40
$GAGSV,2,1,08,04,23,052,46,09,71,085,51,36,61,167,48,34,56,297,37,1*7A
$GAGSV,2,2,08,06,47,061,50,05,46,212,42,11,14,145,48,23,,,42,1*44
$GBGSV,4,1,15,16,,,39,32,48,070,48,29,45,240,37,06,31,052,44,1*47
$GBGSV,4,2,15,35,26,313,32,39,23,038,42,19,21,255,36,23,20,081,44,1*76
$GBGSV,4,3,15,30,18,188,30,05,15,118,36,25,12,032,43,37,09,128,44,1*75
$GBGSV,4,4,15,09,,,36,48,,,29,20,70,263,34,1*4C
$GBGSV,3,1,11,48,,,47,32,48,070,45,29,45,240,43,35,26,313,38,5*47
$GBGSV,3,2,11,39,23,038,48,19,21,255,43,23,20,081,51,30,18,188,48,5*78
$GBGSV,3,3,11,25,12,032,43,37,09,128,47,20,70,263,44,5*47
$GNGLL,5200.305130,N,00433.779820,E,092408.000,A,D*41
$GNRMC,092409.000,A,5200.305130,N,00433.779808,E,0.01,0.00,170925,,,D,V*0E
$GNVTG,0.00,T,,M,0.01,N,0.03,K,D*24
$GNGGA,092409.000,5200.305130,N,00433.779808,E,2,60,0.43,-0.347,M,47.117,M,,*51
$GNGSA,A,3,09,06,03,11,04,19,31,17,01,07,,,0.76,0.43,0.62,1*01
$GNGSA,A,3,66,67,81,83,75,76,68,82,,,,,0.76,0.43,0.62,2*04
$GNGSA,A,3,04,09,36,34,06,05,11,,,,,,0.76,0.43,0.62,3*0D
$GNGSA,A,3,32,29,06,35,39,19,23,30,05,25,37,20,0.76,0.43,0.62,4*08
$GPGSV,4,1,13,09,64,215,39,06,61,285,33,03,39,094,48,49,30,179,42,1*65
$GPGSV,4,2,13,11,25,311,43,04,69,075,42,19,24,239,40,31,19,040,38,1*6B
$GPGSV,4,3,13,17,13,220,43,01,10,147,49,07,07,173,47,26,04,062,28,1*65
$GPGSV,4,4,13,21,03,279,,1*5A
$GPGSV,2,1,08,21,03,279,45,06,61,285,49,03,39,094,52,11,25,311,48,8*63
$GPGSV,2,2,08,01,10,147,48,04,69,075,49,26,04,062,48,09,64,215,35,8*6C
$GLGSV,3,1,09,74,04,352,35,66,61,040,52,67,53,259,31,81,40,189,38,1*7F
$GLGSV,3,2,09,83,23,328,41,75,21,039,45,76,12,096,45,68,06,245,44,1*7B
$GLGSV,3,3,09,82,64,273,39,1*45
$GAGSV,2,1,08,04,23,052,45,09,71,085,42,36,61,167,40,34,56,297,34,7*76
$GAGSV,2,2,08,06,47,061,32,05,46,212,41,11,14,145,38,23,,,40,7*40
$GAGSV,2,1,08,04,23,052,46,09,71,085,51,36,61,167,48,34,56,297,37,1*7A
$GAGSV,2,2,08,06,47,061,50,05,46,212,42,11,14,145,48,23,,,42,1*44
$GBGSV,4,1,15,16,,,39,32,48,070,48,29,45,240,37,06,31,052,44,1*47
$GBGSV,4,2,15,35,26,313,32,39,23,038,42,19,21,255,36,23,20,081,44,1*76
$GBGSV,4,3,15,30,18,188,30,05,15,118,36,25,12,032,43,37,09,128,44,1*75
$GBGSV,4,4,15,09,,,36,48,,,31,20,70,263,34,1*45
$GBGSV,3,1,11,48,,,46,32,48,070,45,29,45,240,43,35,26,313,38,5*46
$GBGSV,3,2,11,39,23,038,48,19,21,255,43,23,20,081,51,30,18,188,48,5*78
$GBGSV,3,3,11,25,12,032,43,37,09,128,47,20,70,263,44,5*47
$GNGLL,5200.305130,N,00433.779808,E,092409.000,A,D*4A
$GNRMC,092410.000,A,5200.305124,N,00433.779808,E,0.02,0.00,170925,,,D,V*00
$GNVTG,0.00,T,,M,0.02,N,0.03,K,D*27
$GNGGA,092410.000,5200.305124,N,00433.779808,E,2,60,0.43,-0.381,M,47.117,M,,*56
$GNGSA,A,3,09,06,03,11,04,19,31,17,01,07,,,0.76,0.43,0.62,1*01
$GNGSA,A,3,66,67,81,83,75,76,68,82,,,,,0.76,0.43,0.62,2*04
$GNGSA,A,3,04,09,36,34,06,05,11,,,,,,0.76,0.43,0.62,3*0D
$GNGSA,A,3,32,29,06,35,39,19,23,30,05,25,37,20,0.76,0.43,0.62,4*08
$GPGSV,4,1,13,09,64,215,39,06,61,285,33,03,39,094,48,49,30,179,42,1*65
$GPGSV,4,2,13,11,25,311,43,04,69,075,42,19,24,239,40,31,19,040,38,1*6B
$GPGSV,4,3,13,17,13,220,43,01,10,147,49,07,07,173,47,26,04,062,29,1*64
$GPGSV,4,4,13,21,03,279,,1*5A
$GPGSV,2,1,08,21,03,279,45,06,61,285,49,03,39,094,52,11,25,311,48,8*63
$GPGSV,2,2,08,01,10,147,48,04,69,075,49,26,04,062,48,09,64,215,35,8*6C
$GLGSV,3,1,09,74,04,352,35,66,61,040,52,67,53,259,31,81,40,189,38,1*7F
$GLGSV,3,2,09,83,23,328,41,75,21,039,45,76,12,096,45,68,06,245,44,1*7B
$GLGSV,3,3,09,82,64,273,39,1*45
$GAGSV,2,1,08,04,23,052,45,09,71,085,42,36,61,167,40,34,56,297,34,7*76
$GAGSV,2,2,08,06,47,061,31,05,46,212,41,11,14,145,38,23,,,39,7*4D
$GAGSV,2,1,08,04,23,052,46,09,71,085,51,36,61,167,48,34,56,297,37,1*7A
$GAGSV,2,2,08,06,47,061,50,05,46,212,42,11,14,145,48,23,,,42,1*44
$GBGSV,4,1,15,16,,,39,32,48,070,47,29,45,240,37,06,31,052,44,1*48
$GBGSV,4,2,15,35,26,313,31,39,23,038,42,19,21,255,36,23,20,081,44,1*75
$GBGSV,4,3,15,30,18,188,30,05,15,118,36,25,12,032,43,37,09,128,44,1*75
$GBGSV,4,4,15,09,,,36,48,,,31,20,70,263,34,1*45
$GBGSV,3,1,11,48,,,46,32,48,070,45,29,45,240,43,35,26,313,38,5*46
$GBGSV,3,2,11,39,23,038,48,19,21,255,43,23,20,081,51,30,18,188,48,5*78
$GBGSV,3,3,11,25,12,032,43,37,09,128,47,20,70,263,44,5*47
$GNGLL,5200.305124,N,00433.779808,E,092410.000,A,D*47
$GNRMC,092411.000,A,5200.305136,N,00433.779796,E,0.01,0.00,170925,,,D,V*09
$GNVTG,0.00,T,,M,0.01,N,0.03,K,D*24
$GNGGA,092411.000,5200.305136,N,00433.779796,E,2,60,0.43,-0.387,M,47.117,M,,*5A
$GNGSA,A,3,09,06,03,11,04,19,31,17,01,07,,,0.76,0.43,0.62,1*01
$GNGSA,A,3,66,67,81,83,75,76,68,82,,,,,0.76,0.43,0.62,2*04
$GNGSA,A,3,04,09,36,34,06,05,11,,,,,,0.76,0.43,0.62,3*0D
$GNGSA,A,3,32,29,06,35,39,19,23,30,05,25,37,20,0.76,0.43,0.62,4*08
$GPGSV,4,1,13,09,64,215,39,06,61,285,32,03,39,094,48,49,30,179,42,1*64
$GPGSV,4,2,13,11,25,311,43,04,69,075,42,19,24,239,40,31,19,040,38,1*6B
$GPGSV,4,3,13,17,13,220,43,01,10,147,48,07,07,173,47,26,04,062,29,1*65
$GPGSV,4,4,13,21,03,279,,1*5A
$GPGSV,2,1,08,21,03,279,45,06,61,285,49,03,39,094,52,11,25,311,48,8*63
$GPGSV,2,2,08,01,10,147,48,04,69,075,49,26,04,062,48,09,64,215,35,8*6C
$GLGSV,3,1,09,74,04,352,35,66,60,040,52,67,53,259,32,81,40,189,38,1*7D
$GLGSV,3,2,09,83,23,328,41,75,21,039,45,76,12,096,45,68,06,245,44,1*7B
$GLGSV,3,3,09,82,64,273,39,1*45
$GAGSV,2,1,08,04,23,052,45,09,71,085,42,36,61,167,40,34,56,297,34,7*76
$GAGSV,2,2,08,06,47,061,31,05,46,212,41,11,14,145,38,23,,,39,7*4D
$GAGSV,2,1,08,04,23,052,46,09,71,085,51,36,61,167,48,34,56,297,37,1*7A
$GAGSV,2,2,08,06,47,061,50,05,46,212,42,11,14,145,48,23,,,42,1*44
$GBGSV,4,1,15,16,,,39,32,48,070,47,29,45,240,37,06,31,052,44,1*48
$GBGSV,4,2,15,35,26,313,30,39,23,038,42,19,21,255,36,23,20,081,43,1*73
$GBGSV,4,3,15,30,18,188,30,05,15,118,36,25,12,032,43,37,09,128,44,1*75
$GBGSV,4,4,15,09,,,36,48,,,24,20,70,263,34,1*41
$GBGSV,3,1,11,48,,,47,32,48,070,45,29,45,240,43,35,26,313,38,5*47
$GBGSV,3,2,11,39,23,038,48,19,21,255,43,23,20,081,51,30,18,188,48,5*78
$GBGSV,3,3,11,25,12,032,43,37,09,128,47,20,70,263,44,5*47
$GNGLL,5200.305136,N,00433.779796,E,092411.000,A,D*4D
$GNRMC,092412.000,A,5200.305148,N,00433.779784,E,0.01,0.00,170925,,,D,V*00
$GNVTG,0.00,T,,M,0.01,N,0.02,K,D*25
$GNGGA,092412.000,5200.305148,N,00433.779784,E,2,60,0.43,-0.382,M,47.116,M,,*57
$GNGSA,A,3,09,06,03,11,04,19,31,17,01,07,,,0.76,0.43,0.62,1*01
$GNGSA,A,3,66,67,81,83,75,76,68,82,,,,,0.76,0.43,0.62,2*04
$GNGSA,A,3,04,09,36,34,06,05,11,,,,,,0.76,0.43,0.62,3*0D
$GNGSA,A,3,32,29,06,35,39,19,23,30,05,25,37,20,0.76,0.43,0.62,4*08
$GPGSV,4,1,13,09,64,215,39,06,61,285,34,03,39,094,48,49,30,179,42,1*62
$GPGSV,4,2,13,11,25,311,43,04,69,075,42,19,24,239,40,31,19,040,37,1*64
$GPGSV,4,3,13,17,13,220,43,01,10,147,48,07,07,173,47,26,04,062,29,1*65
$GPGSV,4,4,13,21,03,279,31,1*58
$GPGSV,2,1,08,21,03,279,45,06,61,285,49,03,39,094,52,11,25,311,48,8*63
$GPGSV,2,2,08,01,10,147,48,04,69,075,49,26,04,062,49,09,64,215,35,8*6D
$GLGSV,3,1,09,74,04,352,35,66,60,040,52,67,53,259,31,81,40,189,38,1*7E
$GLGSV,3,2,09,83,23,328,41,75,21,039,45,76,12,096,45,68,06,245,44,1*7B
$GLGSV,3,3,09,82,64,273,39,1*45
$GAGSV,2,1,08,04,23,052,45,09,71,085,42,36,61,167,40,34,56,297,34,7*76
$GAGSV,2,2,08,06,47,061,31,05,46,212,41,11,14,145,38,23,,,39,7*4D
$GAGSV,2,1,08,04,23,052,46,09,71,085,51,36,61,167,48,34,56,297,37,1*7A
$GAGSV,2,2,08,06,47,061,50,05,46,212,42,11,14,145,48,23,,,42,1*44
$GBGSV,4,1,15,16,,,39,32,48,070,47,29,45,240,37,06,31,052,44,1*48
$GBGSV,4,2,15,35,26,313,30,39,23,038,42,19,21,255,36,23,20,081,43,1*73
$GBGSV,4,3,15,30,18,188,30,05,15,118,36,25,12,032,43,37,09,128,44,1*75
$GBGSV,4,4,15,09,,,36,48,,,26,20,70,263,34,1*43
$GBGSV,3,1,11,48,,,47,32,48,070,45,29,45,240,43,35,26,313,38,5*47
$GBGSV,3,2,11,39,23,038,48,19,21,255,43,23,20,081,51,30,18,188,48,5*78
$GBGSV,3,3,11,25,12,032,43,37,09,128,47,20,70,263,44,5*47
$GNGLL,5200.305148,N,00433.779784,E,092412.000,A,D*44
$GNRMC,092413.000,A,5200.305160,N,00433.779772,E,0.01,0.00,170925,,,D,V*02
$GNVTG,0.00,T,,M,0.01,N,0.01,K,D*26
$GNGGA,092413.000,5200.305160,N,00433.779772,E,2,60,0.43,-0.392,M,47.117,M,,*55
$GNGSA,A,3,09,06,03,11,04,19,31,17,01,07,,,0.76,0.43,0.62,1*01
$GNGSA,A,3,66,67,81,83,75,76,68,82,,,,,0.76,0.43,0.62,2*04
$GNGSA,A,3,04,09,36,34,06,05,11,,,,,,0.76,0.43,0.62,3*0D
$GNGSA,A,3,32,29,06,35,39,19,23,30,05,25,37,20,0.76,0.43,0.62,4*08
$GPGSV,4,1,13,09,64,215,39,06,61,285,34,03,39,094,48,49,30,179,42,1*62
$GPGSV,4,2,13,11,25,311,43,04,69,075,42,19,24,239,40,31,19,040,36,1*65
$GPGSV,4,3,13,17,13,220,43,01,10,147,48,07,07,173,47,26,04,062,29,1*65
$GPGSV,4,4,13,21,03,279,30,1*59
$GPGSV,2,1,08,21,03,279,45,06,61,285,49,03,39,094,52,11,25,311,48,8*63
$GPGSV,2,2,08,01,10,147,47,04,69,075,49,26,04,062,49,09,64,215,35,8*62
$GLGSV,3,1,09,74,04,352,34,66,60,040,52,67,53,259,31,81,40,189,38,1*7F
$GLGSV,3,2,09,83,23,328,41,75,21,039,45,76,12,096,45,68,06,245,44,1*7B
$GLGSV,3,3,09,82,64,273,39,1*45
$GAGSV,2,1,08,04,23,052,45,09,71,085,42,36,61,167,40,34,56,297,34,7*76
$GAGSV,2,2,08,06,47,061,31,05,46,212,41,11,14,145,38,23,,,39,7*4D
$GAGSV,2,1,08,04,23,052,46,09,71,085,51,36,61,167,48,34,56,297,37,1*7A
$GAGSV,2,2,08,06,47,061,50,05,46,212,42,11,14,145,48,23,,,42,1*44
$GBGSV,4,1,15,16,,,39,32,48,070,47,29,45,240,37,06,31,052,44,1*48
$GBGSV,4,2,15,35,26,313,30,39,23,038,42,19,21,255,36,23,20,081,43,1*73
$GBGSV,4,3,15,30,18,188,30,05,15,118,36,25,12,032,43,37,09,128,44,1*75
$GBGSV,4,4,15,09,,,36,48,,,27,20,70,263,35,1*43
$GBGSV,3,1,11,48,,,47,32,48,070,45,29,45,240,43,35,26,313,38,5*47
$GBGSV,3,2,11,39,23,038,48,19,21,255,43,23,20,081,51,30,18,188,48,5*78
$GBGSV,3,3,11,25,12,032,43,37,09,128,47,20,70,263,44,5*47
$GNGLL,5200.305160,N,00433.779772,E,092413.000,A,D*46
$GNRMC,092414.000,A,5200.305160,N,00433.779748,E,0.01,0.00,170925,,,D,V*0C
$GNVTG,0.00,T,,M,0.01,N,0.01,K,D*26
$GNGGA,092414.000,5200.305160,N,00433.779748,E,2,60,0.43,-0.414,M,47.117,M,,*52
$GNGSA,A,3,09,06,03,11,04,19,31,17,01,07,,,0.76,0.43,0.62,1*01
$GNGSA,A,3,66,67,81,83,75,76,68,82,,,,,0.76,0.43,0.62,2*04
$GNGSA,A,3,04,09,36,34,06,05,11,,,,,,0.76,0.43,0.62,3*0D
$GNGSA,A,3,32,29,06,35,39,19,23,30,05,25,37,20,0.76,0.43,0.62,4*08
$GPGSV,4,1,13,09,64,215,39,06,61,285,35,03,39,094,48,49,30,179,42,1*63
$GPGSV,4,2,13,11,25,311,43,04,69,075,42,19,24,239,40,31,19,040,36,1*65
$GPGSV,4,3,13,17,13,220,43,01,10,147,48,07,07,173,47,26,04,062,30,1*6D
$GPGSV,4,4,13,21,03,279,30,1*59
$GPGSV,2,1,08,21,03,279,45,06,61,285,49,03,39,094,52,11,25,311,48,8*63
$GPGSV,2,2,08,01,10,147,47,04,69,075,49,26,04,062,49,09,64,215,35,8*62
$GLGSV,3,1,09,74,04,352,34,66,60,040,52,67,53,259,31,81,40,189,38,1*7F
$GLGSV,3,2,09,83,23,328,41,75,21,039,45,76,12,096,45,68,06,245,44,1*7B
$GLGSV,3,3,09,82,64,273,39,1*45
$GAGSV,2,1,08,04,23,052,45,09,71,085,42,36,61,167,39,34,56,297,33,7*7F
$GAGSV,2,2,08,06,47,061,32,05,46,212,41,11,14,145,38,23,,,39,7*4E
$GAGSV,2,1,08,04,23,052,46,09,71,085,51,36,61,167,48,34,56,297,37,1*7A
$GAGSV,2,2,08,06,47,061,50,05,46,212,42,11,14,145,48,23,,,42,1*44
$GBGSV,4,1,15,16,,,38,32,48,070,47,29,45,240,37,06,31,052,44,1*49
$GBGSV,4,2,15,35,26,313,30,39,23,038,41,19,21,255,36,23,20,081,43,1*70
$GBGSV,4,3,15,30,18,188,30,05,15,118,36,25,12,032,43,37,09,128,44,1*75
$GBGSV,4,4,15,09,,,36,48,,,28,20,70,263,35,1*4C
$GBGSV,3,1,11,48,,,47,32,48,070,46,29,45,240,43,35,26,313,38,5*44
$GBGSV,3,2,11,39,23,038,48,19,21,255,43,23,20,081,51,30,18,188,48,5*78
$GBGSV,3,3,11,25,12,032,44,37,09,128,47,20,70,263,44,5*40
$GNGLL,5200.305160,N,00433.779748,E,092414.000,A,D*48
$GNRMC,092415.000,A,5200.305154,N,00433.779742,E,0.01,0.00,170925,,,D,V*00
$GNVTG,0.00,T,,M,0.01,N,0.01,K,D*26
$GNGGA,092415.000,5200.305154,N,00433.779742,E,2,61,0.43,-0.434,M,47.117,M,,*5D
$GNGSA,A,3,09,06,03,11,04,19,31,17,01,07,,,0.76,0.43,0.62,1*01
$GNGSA,A,3,66,67,81,83,75,76,68,82,,,,,0.76,0.43,0.62,2*04
$GNGSA,A,3,04,09,36,34,06,05,11,,,,,,0.76,0.43,0.62,3*0D
$GNGSA,A,3,32,29,09,06,35,39,19,23,30,05,25,37,0.76,0.43,0.62,4*03
$GNGSA,A,3,20,,,,,,,,,,,,0.76,0.43,0.62,4*04
$GPGSV,4,1,13,09,64,215,39,06,61,285,33,03,39,094,48,49,30,179,42,1*65
$GPGSV,4,2,13,11,25,311,43,04,69,075,42,19,24,239,40,31,19,040,36,1*65
$GPGSV,4,3,13,17,13,220,43,01,10,147,48,07,07,173,47,26,04,062,31,1*6C
$GPGSV,4,4,13,21,03,279,29,1*51
$GPGSV,2,1,08,21,03,279,45,06,61,285,49,03,39,094,52,11,25,311,48,8*63
$GPGSV,2,2,08,01,10,147,47,04,69,075,49,26,04,062,49,09,64,215,35,8*62
$GLGSV,3,1,09,74,04,352,34,66,60,040,52,67,53,259,30,81,40,189,38,1*7E
$GLGSV,3,2,09,83,23,328,41,75,21,039,45,76,12,096,45,68,06,245,44,1*7B
$GLGSV,3,3,09,82,64,273,39,1*45
$GAGSV,2,1,08,04,23,052,45,09,71,085,42,36,61,167,39,34,56,297,33,7*7F
$GAGSV,2,2,08,06,47,061,31,05,46,212,41,11,14,145,37,23,,,38,7*43
$GAGSV,2,1,08,04,23,052,46,09,71,085,51,36,61,167,48,34,56,297,37,1*7A
$GAGSV,2,2,08,06,47,061,50,05,46,212,42,11,14,145,48,23,,,42,1*44
$GBGSV,4,1,15,16,,,38,32,48,070,47,29,45,240,37,09,37,066,35,1*41
$GBGSV,4,2,15,06,31,052,44,35,26,313,30,39,23,038,41,19,21,255,36,1*7E
$GBGSV,4,3,15,23,20,081,44,30,18,188,30,05,15,118,36,25,12,032,43,1*79
$GBGSV,4,4,15,37,09,128,44,48,,,29,20,70,263,35,1*77
$GBGSV,3,1,11,48,,,47,32,48,070,46,29,45,240,43,35,26,313,38,5*44
$GBGSV,3,2,11,39,23,038,48,19,21,255,43,23,20,081,51,30,18,188,48,5*78
$GBGSV,3,3,11,25,12,032,44,37,09,128,47,20,70,263,44,5*40
$GNGLL,5200.305154,N,00433.779742,E,092415.000,A,D*44
$GNRMC,092416.000,A,5200.305160,N,00433.779736,E,0.01,0.00,170925,,,D,V*07
$GNVTG,0.00,T,,M,0.01,N,0.02,K,D*25
$GNGGA,092416.000,5200.305160,N,00433.779736,E,2,61,0.43,-0.451,M,47.117,M,,*59
$GNGSA,A,3,09,06,03,11,19,04,31,17,01,07,,,0.76,0.43,0.62,1*01
$GNGSA,A,3,66,67,81,83,75,76,68,82,,,,,0.76,0.43,0.62,2*04
$GNGSA,A,3,11,09,36,34,06,05,04,,,,,,0.76,0.43,0.62,3*0D
$GNGSA,A,3,32,29,09,06,35,39,19,23,30,05,25,37,0.76,0.43,0.62,4*03
$GNGSA,A,3,20,,,,,,,,,,,,0.76,0.43,0.62,4*04
$GPGSV,4,1,13,09,64,215,39,06,61,285,35,03,39,094,48,49,30,179,42,1*63
$GPGSV,4,2,13,11,25,311,43,19,24,239,40,04,69,075,42,31,19,040,36,1*65
$GPGSV,4,3,13,17,13,220,43,01,10,147,47,07,07,173,47,26,04,062,32,1*60
$GPGSV,4,4,13,21,03,279,29,1*51
$GPGSV,2,1,08,21,03,279,46,06,61,285,49,03,39,094,52,11,25,311,48,8*60
$GPGSV,2,2,08,01,10,147,47,04,69,075,49,26,04,062,49,09,64,215,35,8*62
$GLGSV,3,1,09,74,04,352,34,66,60,040,52,67,53,259,31,81,40,189,38,1*7F
$GLGSV,3,2,09,83,23,328,41,75,21,039,45,76,12,096,45,68,06,245,44,1*7B
$GLGSV,3,3,09,82,64,273,39,1*45
$GAGSV,3,1,09,11,14,145,37,09,71,085,42,36,61,167,39,34,56,297,33,7*7D
$GAGSV,3,2,09,06,47,061,31,05,46,212,41,04,23,052,45,21,05,008,,7*75
$GAGSV,3,3,09,23,,,38,7*70
$GAGSV,2,1,08,04,23,052,46,09,71,085,51,36,61,167,48,34,56,297,37,1*7A
$GAGSV,2,2,08,06,47,061,50,05,46,212,42,11,14,145,48,23,,,42,1*44
$GBGSV,4,1,15,16,,,38,32,48,070,47,29,45,240,37,09,37,066,35,1*41
$GBGSV,4,2,15,06,31,052,44,35,26,313,30,39,23,038,41,19,21,255,36,1*7E
$GBGSV,4,3,15,23,20,081,44,30,18,188,30,05,15,118,36,25,12,032,43,1*79
$GBGSV,4,4,15,37,09,128,44,48,,,30,20,70,263,35,1*7F
$GBGSV,3,1,11,48,,,47,32,48,070,46,29,45,240,43,35,26,313,38,5*44
$GBGSV,3,2,11,39,23,038,48,19,21,255,43,23,20,081,51,30,18,188,48,5*78
$GBGSV,3,3,11,25,12,032,44,37,09,128,46,20,70,263,44,5*41
$GNGLL,5200.305160,N,00433.779736,E,092416.000,A,D*43
$GNRMC,092417.000,A,5200.305154,N,00433.779724,E,0.01,0.00,170925,,,D,V*02
$GNVTG,0.00,T,,M,0.01,N,0.02,K,D*25
$GNGGA,092417.000,5200.305154,N,00433.779724,E,2,61,0.43,-0.459,M,47.116,M,,*55
$GNGSA,A,3,09,06,03,11,19,04,31,17,01,07,,,0.76,0.43,0.62,1*01
$GNGSA,A,3,66,67,81,83,75,76,68,82,,,,,0.76,0.43,0.62,2*04
$GNGSA,A,3,11,09,36,34,06,05,04,,,,,,0.76,0.43,0.62,3*0D
$GNGSA,A,3,32,29,09,06,35,39,19,23,30,05,25,37,0.76,0.43,0.62,4*03
$GNGSA,A,3,20,,,,,,,,,,,,0.76,0.43,0.62,4*04
$GPGSV,4,1,13,09,64,215,39,06,61,285,33,03,39,094,48,49,30,179,42,1*65
$GPGSV,4,2,13,11,25,311,43,19,24,239,40,04,69,075,42,31,19,040,37,1*64
$GPGSV,4,3,13,17,13,220,43,01,10,147,47,07,07,173,47,26,04,062,32,1*60
$GPGSV,4,4,13,21,03,279,29,1*51
$GPGSV,2,1,08,21,03,279,46,06,61,285,49,03,39,094,52,11,25,311,48,8*60
$GPGSV,2,2,08,01,10,147,46,04,69,075,49,26,04,062,49,09,64,215,35,8*63
$GLGSV,3,1,09,74,04,352,34,66,60,040,52,67,53,259,30,81,40,189,38,1*7E
$GLGSV,3,2,09,83,23,328,41,75,21,039,45,76,12,096,45,68,06,245,44,1*7B
$GLGSV,3,3,09,82,64,273,39,1*45
$GAGSV,3,1,09,11,14,145,36,09,71,085,42,36,61,167,39,34,56,297,33,7*7C
$GAGSV,3,2,09,06,47,061,31,05,46,212,41,04,23,052,45,21,05,008,33,7*75
$GAGSV,3,3,09,23,,,38,7*70
$GAGSV,2,1,08,04,23,052,46,09,71,085,51,36,61,167,48,34,56,297,37,1*7A
$GAGSV,2,2,08,06,47,061,50,05,46,212,42,11,14,145,48,23,,,42,1*44
$GBGSV,4,1,15,16,,,38,32,48,070,47,29,45,240,37,09,37,066,35,1*41
$GBGSV,4,2,15,06,31,052,44,35,26,313,30,39,23,038,41,19,21,255,36,1*7E
$GBGSV,4,3,15,23,20,081,44,30,18,188,30,05,15,118,36,25,12,032,43,1*79
$GBGSV,4,4,15,37,09,128,44,48,,,30,20,70,263,35,1*7F
$GBGSV,3,1,11,48,,,47,32,48,070,46,29,45,240,43,35,26,313,38,5*44
$GBGSV,3,2,11,39,23,038,48,19,21,255,43,23,20,081,51,30,18,188,48,5*78
$GBGSV,3,3,11,25,12,032,44,37,09,128,45,20,70,263,44,5*42
$GNGLL,5200.305154,N,00433.779724,E,092417.000,A,D*46
$GNRMC,092418.000,A,5200.305130,N,00433.779706,E,0.02,0.00,170925,,,D,V*0C
$GNVTG,0.00,T,,M,0.02,N,0.03,K,D*27
$GNGGA,092418.000,5200.305130,N,00433.779706,E,2,63,0.42,-0.434,M,47.117,M,,*51
$GNGSA,A,3,09,06,03,11,19,04,31,17,01,07,,,0.72,0.42,0.59,1*0C
$GNGSA,A,3,66,67,81,83,75,76,68,82,,,,,0.72,0.42,0.59,2*09
$GNGSA,A,3,11,09,36,34,06,05,04,23,,,,,0.72,0.42,0.59,3*01
$GNGSA,A,3,32,29,09,06,35,39,19,23,30,05,25,37,0.72,0.42,0.59,4*0E
$GNGSA,A,3,20,,,,,,,,,,,,0.72,0.42,0.59,4*09
$GPGSV,4,1,13,09,64,215,39,06,61,285,33,03,39,094,48,49,30,179,42,1*65
$GPGSV,4,2,13,11,25,311,43,19,24,239,40,04,69,075,42,31,19,040,38,1*6B
$GPGSV,4,3,13,17,13,220,43,01,10,147,47,07,07,173,47,26,04,062,32,1*60
$GPGSV,4,4,13,21,03,279,27,1*5F
$GPGSV,2,1,08,21,03,279,46,06,61,285,49,03,39,094,52,11,25,311,48,8*60
$GPGSV,2,2,08,01,10,147,46,04,69,075,49,26,04,062,49,09,64,215,35,8*63
$GLGSV,3,1,09,74,04,352,34,66,60,040,52,67,53,259,29,81,40,189,38,1*76
$GLGSV,3,2,09,83,23,328,41,75,21,039,45,76,12,096,45,68,06,245,44,1*7B
$GLGSV,3,3,09,82,64,273,39,1*45
$GAGSV,3,1,09,11,14,145,35,09,71,085,42,36,61,167,39,34,56,297,33,7*7F
$GAGSV,3,2,09,06,47,061,31,05,46,212,41,04,23,052,45,21,05,008,34,7*72
$GAGSV,3,3,09,23,,,38,7*70
$GAGSV,2,1,08,04,23,052,46,09,71,085,51,36,61,167,48,34,56,297,37,1*7A
$GAGSV,2,2,08,06,47,061,50,05,46,212,42,11,14,145,48,23,,,42,1*44
$GBGSV,4,1,15,16,,,39,32,48,070,47,29,45,240,37,09,37,066,35,1*40
$GBGSV,4,2,15,06,31,052,44,35,26,313,30,39,23,038,41,19,21,255,37,1*7F
$GBGSV,4,3,15,23,20,081,43,30,18,188,30,05,15,118,36,25,12,032,43,1*7E
$GBGSV,4,4,15,37,09,128,44,48,,,30,20,70,263,35,1*7F
$GBGSV,3,1,11,48,,,47,32,48,070,46,29,45,240,43,35,26,313,38,5*44
$GBGSV,3,2,11,39,23,038,48,19,21,255,43,23,20,081,51,30,18,188,48,5*78
$GBGSV,3,3,11,25,12,032,44,37,09,128,45,20,70,263,44,5*42
$GNGLL,5200.305130,N,00433.779706,E,092418.000,A,D*4B
$GNRMC,092419.000,A,5200.305136,N,00433.779682,E,0.01,0.00,170925,,,D,V*05
$GNVTG,0.00,T,,M,0.01,N,0.03,K,D*24
$GNGGA,092419.000,5200.305136,N,00433.779682,E,2,61,0.43,-0.445,M,47.117,M,,*5E
$GNGSA,A,3,09,06,03,11,04,19,31,17,01,07,,,0.76,0.43,0.62,1*01
$GNGSA,A,3,66,67,81,83,75,76,68,82,,,,,0.76,0.43,0.62,2*04
$GNGSA,A,3,04,09,36,34,06,05,11,,,,,,0.76,0.43,0.62,3*0D
$GNGSA,A,3,32,29,09,06,35,39,19,23,30,05,25,37,0.76,0.43,0.62,4*03
$GNGSA,A,3,20,,,,,,,,,,,,0.76,0.43,0.62,4*04
$GPGSV,4,1,13,09,64,215,39,06,61,285,33,03,39,094,48,49,30,179,42,1*65
$GPGSV,4,2,13,11,25,311,43,04,69,075,42,19,24,239,40,31,19,040,38,1*6B
$GPGSV,4,3,13,17,13,220,43,01,10,147,46,07,07,173,47,26,04,062,33,1*60
$GPGSV,4,4,13,21,03,279,27,1*5F
$GPGSV,2,1,08,09,64,215,35,03,39,094,52,11,25,311,48,01,10,147,46,8*66
$GPGSV,2,2,08,26,04,062,49,04,69,075,49,21,03,279,46,06,61,285,49,8*65
$GLGSV,3,1,09,74,04,352,34,66,60,040,52,67,53,259,29,81,40,189,38,1*76
$GLGSV,3,2,09,83,23,328,41,75,21,039,45,76,12,096,45,68,06,245,44,1*7B
$GLGSV,3,3,09,82,64,273,39,1*45
$GAGSV,2,1,08,04,23,052,45,09,71,085,42,36,61,167,39,34,56,297,33,7*7F
$GAGSV,2,2,08,06,47,061,31,05,46,212,41,11,14,145,35,21,05,008,34,7*72
$GAGSV,3,1,09,23,,,42,11,14,145,48,09,71,085,51,36,61,167,48,1*48
$GAGSV,3,2,09,34,56,297,37,06,47,061,50,05,46,212,42,04,23,052,46,1*76
$GAGSV,3,3,09,21,05,008,24,1*44
$GBGSV,4,1,15,48,,,29,32,48,070,47,29,45,240,37,09,37,066,35,1*4A
$GBGSV,4,2,15,06,31,052,44,35,26,313,30,39,23,038,41,19,21,255,37,1*7F
$GBGSV,4,3,15,23,20,081,43,30,18,188,29,05,15,118,36,25,12,032,43,1*76
$GBGSV,4,4,15,37,09,128,44,16,,,39,20,70,263,35,1*7D
$GBGSV,3,1,11,48,,,47,32,48,070,46,29,45,240,43,35,26,313,38,5*44
$GBGSV,3,2,11,39,23,038,48,19,21,255,42,23,20,081,51,30,18,188,48,5*79
$GBGSV,3,3,11,25,12,032,44,37,09,128,45,20,70,263,44,5*42
$GNGLL,5200.305136,N,00433.779682,E,092419.000,A,D*41
$GNRMC,092420.000,A,5200.305130,N,00433.779652,E,0.01,0.00,170925,,,D,V*04
$GNVTG,0.00,T,,M,0.01,N,0.03,K,D*24
$GNGGA,092420.000,5200.305130,N,00433.779652,E,2,61,0.43,-0.460,M,47.117,M,,*58
$GNGSA,A,3,09,06,03,11,04,19,31,17,01,07,,,0.76,0.43,0.62,1*01
$GNGSA,A,3,66,67,81,83,75,76,68,82,,,,,0.76,0.43,0.62,2*04
$GNGSA,A,3,04,09,36,34,06,05,11,,,,,,0.76,0.43,0.62,3*0D
$GNGSA,A,3,32,29,09,06,35,39,19,23,30,05,25,37,0.76,0.43,0.62,4*03
$GNGSA,A,3,20,,,,,,,,,,,,0.76,0.43,0.62,4*04
$GPGSV,4,1,13,09,64,215,39,06,61,285,34,03,39,094,48,49,30,179,42,1*62
$GPGSV,4,2,13,11,25,311,43,04,69,075,42,19,24,239,40,31,19,040,39,1*6A
$GPGSV,4,3,13,17,13,220,43,01,10,147,46,07,07,173,47,26,04,062,33,1*60
$GPGSV,4,4,13,21,03,279,27,1*5F
$GPGSV,2,1,08,21,03,279,46,06,61,285,49,03,39,094,52,11,25,311,48,8*60
$GPGSV,2,2,08,01,10,147,46,04,69,075,49,26,04,062,49,09,64,215,35,8*63
$GLGSV,3,1,09,74,04,352,34,66,60,040,52,67,53,259,29,81,40,189,39,1*77
$GLGSV,3,2,09,83,23,328,41,75,21,039,44,76,12,096,45,68,06,245,44,1*7A
$GLGSV,3,3,09,82,64,273,39,1*45
$GAGSV,2,1,08,04,23,052,45,09,71,085,42,36,61,167,39,34,56,297,33,7*7F
$GAGSV,2,2,08,06,47,061,30,05,46,212,41,11,14,145,34,21,05,008,35,7*73
$GAGSV,2,1,08,04,23,052,46,09,71,085,51,36,61,167,48,34,56,297,37,1*7A
$GAGSV,2,2,08,06,47,061,50,05,46,212,42,11,14,145,47,21,05,008,30,1*71
$GBGSV,4,1,15,48,,,29,32,48,070,47,29,45,240,37,09,37,066,35,1*4A
$GBGSV,4,2,15,06,31,052,44,35,26,313,30,39,23,038,41,19,21,255,37,1*7F
$GBGSV,4,3,15,23,20,081,43,30,18,188,29,05,15,118,36,25,12,032,43,1*76
$GBGSV,4,4,15,37,09,128,44,16,,,38,20,70,263,35,1*7C
$GBGSV,3,1,11,48,,,47,32,48,070,46,29,45,240,43,35,26,313,38,5*44
$GBGSV,3,2,11,39,23,038,48,19,21,255,42,23,20,081,51,30,18,188,48,5*79
$GBGSV,3,3,11,25,12,032,44,37,09,128,45,20,70,263,44,5*42
$GNGLL,5200.305130,N,00433.779652,E,092420.000,A,D*40
$GNRMC,092421.000,A,5200.305136,N,00433.779622,E,0.01,0.00,170925,,,D,V*04
$GNVTG,0.00,T,,M,0.01,N,0.02,K,D*25
$GNGGA,092421.000,5200.305136,N,00433.779622,E,2,61,0.43,-0.478,M,47.117,M,,*51
$GNGSA,A,3,09,06,03,11,04,19,31,17,01,07,,,0.76,0.43,0.62,1*01
$GNGSA,A,3,66,67,81,83,75,76,68,82,,,,,0.76,0.43,0.62,2*04
$GNGSA,A,3,04,09,36,34,06,05,11,,,,,,0.76,0.43,0.62,3*0D
$GNGSA,A,3,32,29,09,06,35,39,19,23,30,05,25,37,0.76,0.43,0.62,4*03
$GNGSA,A,3,20,,,,,,,,,,,,0.76,0.43,0.62,4*04
$GPGSV,4,1,13,09,64,215,39,06,61,285,34,03,39,094,48,49,30,179,42,1*62
$GPGSV,4,2,13,11,25,311,43,04,69,075,42,19,24,239,40,31,19,040,39,1*6A
$GPGSV,4,3,13,17,13,220,43,01,10,147,46,07,07,173,47,26,04,062,34,1*67
$GPGSV,4,4,13,21,03,279,27,1*5F
$GPGSV,2,1,08,21,03,279,46,06,61,285,49,03,39,094,52,11,25,311,48,8*60
$GPGSV,2,2,08,01,10,147,46,04,69,075,49,26,04,062,49,09,64,215,34,8*62
$GLGSV,3,1,09,74,04,352,34,66,60,040,52,67,53,259,28,81,40,189,39,1*76
$GLGSV,3,2,09,83,23,328,41,75,21,039,44,76,13,096,45,68,06,245,44,1*7B
$GLGSV,3,3,09,82,64,273,39,1*45
$GAGSV,2,1,08,04,23,052,45,09,71,085,42,36,61,167,39,34,56,297,33,7*7F
$GAGSV,2,2,08,06,47,061,30,05,46,212,41,11,14,145,34,21,05,008,34,7*72
$GAGSV,2,1,08,04,23,052,46,09,71,085,51,36,61,167,48,34,56,297,37,1*7A
$GAGSV,2,2,08,06,47,061,50,05,46,212,42,11,14,145,47,21,05,008,29,1*79
$GBGSV,4,1,15,48,,,29,32,48,070,47,29,45,240,37,09,37,066,35,1*4A
$GBGSV,4,2,15,06,31,052,44,35,26,313,30,39,23,038,41,19,21,255,37,1*7F
$GBGSV,4,3,15,23,20,081,43,30,18,188,29,05,15,118,36,25,12,032,43,1*76
$GBGSV,4,4,15,37,09,128,44,16,,,38,20,70,263,35,1*7C
$GBGSV,3,1,11,48,,,47,32,48,070,46,29,45,240,43,35,26,313,38,5*44
$GBGSV,3,2,11,39,23,038,48,19,21,255,42,23,20,081,51,30,18,188,48,5*79
$GBGSV,3,3,11,25,12,032,44,37,09,128,44,20,70,263,44,5*43
$GNGLL,5200.305136,N,00433.779622,E,092421.000,A,D*40
$GNRMC,092422.000,A,5200.305142,N,00433.779580,E,0.01,0.00,170925,,,D,V*0F
$GNVTG,0.00,T,,M,0.01,N,0.02,K,D*25
$GNGGA,092422.000,5200.305142,N,00433.779580,E,2,61,0.43,-0.491,M,47.116,M,,*5C
$GNGSA,A,3,09,06,03,11,04,19,31,17,01,07,,,0.76,0.43,0.62,1*01
$GNGSA,A,3,66,67,81,83,75,76,68,82,,,,,0.76,0.43,0.62,2*04
$GNGSA,A,3,04,09,36,34,06,05,11,,,,,,0.76,0.43,0.62,3*0D
$GNGSA,A,3,32,29,09,06,35,39,19,23,30,05,25,37,0.76,0.43,0.62,4*03
$GNGSA,A,3,20,,,,,,,,,,,,0.76,0.43,0.62,4*04
$GPGSV,4,1,13,09,64,215,39,06,61,285,34,03,39,094,48,49,30,179,42,1*62
$GPGSV,4,2,13,11,25,311,43,04,69,075,42,19,24,239,40,31,19,040,39,1*6A
$GPGSV,4,3,13,17,13,220,43,01,10,147,46,07,07,173,47,26,04,062,34,1*67
$GPGSV,4,4,13,21,03,279,27,1*5F
$GPGSV,2,1,08,21,03,279,46,06,61,285,49,03,39,094,52,11,25,311,48,8*60
$GPGSV,2,2,08,01,10,147,46,04,69,075,49,26,04,062,49,09,64,215,34,8*62
$GLGSV,3,1,09,74,04,352,34,66,60,040,52,67,53,259,28,81,40,189,39,1*76
$GLGSV,3,2,09,83,23,328,41,75,21,039,44,76,13,096,45,68,06,245,44,1*7B
$GLGSV,3,3,09,82,64,273,39,1*45
$GAGSV,2,1,08,04,23,052,45,09,71,085,42,36,61,167,39,34,56,297,32,7*7E
$GAGSV,2,2,08,06,47,061,30,05,46,212,41,11,14,145,33,21,05,008,34,7*75
$GAGSV,2,1,08,04,23,052,46,09,71,085,51,36,61,167,48,34,56,297,37,1*7A
$GAGSV,2,2,08,06,47,061,50,05,46,212,42,11,14,145,47,21,05,008,30,1*71
$GBGSV,4,1,15,48,,,29,32,48,070,47,29,45,240,37,09,37,066,34,1*4B
$GBGSV,4,2,15,06,31,052,44,35,26,313,30,39,23,038,41,19,21,255,37,1*7F
$GBGSV,4,3,15,23,20,081,43,30,18,188,29,05,15,118,36,25,12,032,43,1*76
$GBGSV,4,4,15,37,09,128,44,16,,,38,20,70,263,35,1*7C
$GBGSV,3,1,11,48,,,47,32,48,070,46,29,45,240,43,35,26,313,38,5*44
$GBGSV,3,2,11,39,23,038,48,19,21,255,42,23,20,081,51,30,18,188,48,5*79
$GBGSV,3,3,11,25,12,032,44,37,09,128,44,20,70,263,44,5*43
$GNGLL,5200.305142,N,00433.779580,E,092422.000,A,D*4B
$GNRMC,092423.000,A,5200.305148,N,00433.779556,E,0.01,0.00,170925,,,D,V*0F
$GNVTG,0.00,T,,M,0.01,N,0.02,K,D*25
$GNGGA,092423.000,5200.305148,N,00433.779556,E,2,61,0.43,-0.509,M,47.117,M,,*5D
$GNGSA,A,3,09,06,03,11,04,19,31,17,01,07,,,0.76,0.43,0.62,1*01
$GNGSA,A,3,66,67,81,83,75,76,68,82,,,,,0.76,0.43,0.62,2*04
$GNGSA,A,3,04,09,36,34,06,05,11,,,,,,0.76,0.43,0.62,3*0D
$GNGSA,A,3,32,29,09,06,35,39,19,23,30,05,25,37,0.76,0.43,0.62,4*03
$GNGSA,A,3,20,,,,,,,,,,,,0.76,0.43,0.62,4*04
$GPGSV,4,1,13,09,64,215,39,06,61,285,34,03,39,094,48,49,30,179,42,1*62
$GPGSV,4,2,13,11,25,311,43,04,69,075,42,19,24,239,40,31,19,040,39,1*6A
$GPGSV,4,3,13,17,13,220,43,01,10,147,46,07,07,173,47,26,04,062,34,1*67
$GPGSV,4,4,13,21,03,279,27,1*5F
$GPGSV,2,1,08,21,03,279,46,06,61,285,49,03,39,094,52,11,25,311,48,8*60
$GPGSV,2,2,08,01,10,147,46,04,69,075,49,26,04,062,49,09,64,215,34,8*62
$GLGSV,3,1,09,74,04,352,33,66,60,040,52,67,53,259,27,81,40,189,39,1*7E
$GLGSV,3,2,09,83,23,328,41,75,21,039,44,76,13,096,45,68,06,245,44,1*7B
$GLGSV,3,3,09,82,64,273,39,1*45
$GAGSV,2,1,08,04,23,052,45,09,71,085,42,36,61,167,39,34,56,297,32,7*7E
$GAGSV,2,2,08,06,47,061,30,05,46,212,41,11,14,145,32,21,05,008,35,7*75
$GAGSV,2,1,08,04,23,052,46,09,71,085,51,36,61,167,48,34,56,297,37,1*7A
$GAGSV,2,2,08,06,47,061,50,05,46,212,42,11,14,145,47,21,05,008,30,1*71
$GBGSV,4,1,15,48,,,29,32,48,070,47,29,45,240,37,09,37,066,35,1*4A
$GBGSV,4,2,15,06,31,052,44,35,26,313,30,39,23,038,40,19,21,255,37,1*7E
$GBGSV,4,3,15,23,20,081,43,30,18,188,29,05,15,118,36,25,12,032,43,1*76
$GBGSV,4,4,15,37,09,128,44,16,,,37,20,70,263,35,1*73
$GBGSV,3,1,11,48,,,47,32,48,070,46,29,45,240,43,35,26,313,38,5*44
$GBGSV,3,2,11,39,23,038,48,19,21,255,42,23,20,081,51,30,18,188,48,5*79
$GBGSV,3,3,11,25,12,032,44,37,09,128,44,20,70,263,44,5*43
$GNGLL,5200.305148,N,00433.779556,E,092423.000,A,D*4B
$GNRMC,092424.000,A,5200.305148,N,00433.779550,E,0.01,0.00,170925,,,D,V*0E
$GNVTG,0.00,T,,M,0.01,N,0.02,K,D*25
$GNGGA,092424.000,5200.305148,N,00433.779550,E,2,61,0.43,-0.529,M,47.117,M,,*5E
$GNGSA,A,3,09,06,03,11,04,19,31,17,01,07,,,0.76,0.43,0.62,1*01
$GNGSA,A,3,66,67,81,83,75,76,68,82,,,,,0.76,0.43,0.62,2*04
$GNGSA,A,3,04,09,36,34,06,05,11,,,,,,0.76,0.43,0.62,3*0D
$GNGSA,A,3,32,29,09,06,35,39,19,23,30,05,25,37,0.76,0.43,0.62,4*03
$GNGSA,A,3,20,,,,,,,,,,,,0.76,0.43,0.62,4*04
$GPGSV,4,1,13,09,64,215,39,06,61,285,34,03,39,094,48,49,30,179,42,1*62
$GPGSV,4,2,13,11,25,311,43,04,69,075,42,19,24,239,40,31,19,040,39,1*6A
$GPGSV,4,3,13,17,13,220,43,01,10,147,46,07,07,173,47,26,04,062,34,1*67
$GPGSV,4,4,13,21,03,279,,1*5A
$GPGSV,2,1,08,21,03,279,46,06,61,285,49,03,39,094,52,11,25,311,48,8*60
$GPGSV,2,2,08,01,10,147,46,04,69,075,49,26,04,062,49,09,64,215,34,8*62
$GLGSV,3,1,09,74,04,352,32,66,60,040,52,67,53,259,26,81,40,189,39,1*7E
$GLGSV,3,2,09,83,23,328,41,75,21,039,44,76,13,096,45,68,06,245,44,1*7B
$GLGSV,3,3,09,82,64,273,39,1*45
$GAGSV,2,1,08,04,23,052,45,09,71,085,42,36,61,167,39,34,56,297,32,7*7E
$GAGSV,2,2,08,06,47,061,30,05,46,212,41,11,14,145,32,21,05,008,35,7*75
$GAGSV,2,1,08,04,23,052,46,09,71,085,51,36,61,167,48,34,56,297,37,1*7A
$GAGSV,2,2,08,06,47,061,50,05,46,212,42,11,14,145,47,21,05,008,30,1*71
$GBGSV,4,1,15,48,,,29,32,48,070,46,29,45,240,37,09,37,066,35,1*4B
$GBGSV,4,2,15,06,31,052,44,35,26,313,30,39,23,038,40,19,21,255,37,1*7E
$GBGSV,4,3,15,23,20,081,43,30,18,188,29,05,15,118,36,25,12,032,43,1*76
$GBGSV,4,4,15,37,09,128,44,16,,,38,20,70,263,35,1*7C
$GBGSV,3,1,11,48,,,47,32,48,070,46,29,45,240,43,35,26,313,38,5*44
$GBGSV,3,2,11,39,23,038,48,19,21,255,42,23,20,081,51,30,18,188,48,5*79
$GBGSV,3,3,11,25,12,032,44,37,09,128,44,20,70,263,44,5*43
$GNGLL,5200.305148,N,00433.779550,E,092424.000,A,D*4A
$GNRMC,092425.000,A,5200.305142,N,00433.779550,E,0.01,0.00,170925,,,D,V*05
$GNVTG,0.00,T,,M,0.01,N,0.02,K,D*25
$GNGGA,092425.000,5200.305142,N,00433.779550,E,2,61,0.43,-0.547,M,47.117,M,,*5D
$GNGSA,A,3,09,06,03,11,04,19,31,17,01,07,,,0.76,0.43,0.62,1*01
$GNGSA,A,3,66,67,81,83,75,76,68,82,,,,,0.76,0.43,0.62,2*04
$GNGSA,A,3,04,09,36,34,06,05,11,,,,,,0.76,0.43,0.62,3*0D
$GNGSA,A,3,32,29,09,06,35,39,19,23,30,05,25,37,0.76,0.43,0.62,4*03
$GNGSA,A,3,20,,,,,,,,,,,,0.76,0.43,0.62,4*04
$GPGSV,4,1,13,09,64,215,39,06,61,285,34,03,39,094,48,49,30,179,42,1*62
$GPGSV,4,2,13,11,25,311,43,04,69,075,42,19,24,239,40,31,19,040,39,1*6A
$GPGSV,4,3,13,17,13,220,43,01,10,147,45,07,07,173,47,26,04,062,34,1*64
$GPGSV,4,4,13,21,03,279,27,1*5F
$GPGSV,2,1,08,21,03,279,46,06,61,285,49,03,39,094,52,11,25,311,48,8*60
$GPGSV,2,2,08,01,10,147,46,04,69,075,49,26,04,062,49,09,64,215,34,8*62
$GLGSV,3,1,09,74,04,352,32,66,60,040,52,67,53,259,26,81,40,189,39,1*7E
$GLGSV,3,2,09,83,23,328,41,75,21,039,44,76,13,096,46,68,06,245,44,1*78
$GLGSV,3,3,09,82,64,273,39,1*45
$GAGSV,2,1,08,04,23,052,45,09,71,085,42,36,61,167,39,34,56,297,32,7*7E
$GAGSV,2,2,08,06,47,061,30,05,46,212,41,11,14,145,32,21,05,008,35,7*75
$GAGSV,2,1,08,04,23,052,46,09,71,085,51,36,61,167,48,34,56,297,37,1*7A
$GAGSV,2,2,08,06,47,061,50,05,46,212,42,11,14,145,47,21,05,008,29,1*79
$GBGSV,4,1,15,48,,,30,32,48,070,46,29,45,240,37,09,37,066,35,1*43
$GBGSV,4,2,15,06,31,052,44,35,26,313,30,39,23,038,40,19,21,255,37,1*7E
$GBGSV,4,3,15,23,20,081,43,30,18,188,29,05,15,118,36,25,12,032,43,1*76
$GBGSV,4,4,15,37,09,128,44,16,,,38,20,70,263,35,1*7C
$GBGSV,3,1,11,48,,,47,32,48,070,46,29,45,240,43,35,26,313,38,5*44
$GBGSV,3,2,11,39,23,038,48,19,21,255,42,23,20,081,51,30,18,188,48,5*79
$GBGSV,3,3,11,25,12,032,44,37,09,128,44,20,70,263,44,5*43
$GNGLL,5200.305142,N,00433.779550,E,092425.000,A,D*41
$GNRMC,092426.000,A,5200.305142,N,00433.779508,E,0.01,0.00,170925,,,D,V*0B
$GNVTG,0.00,T,,M,0.01,N,0.02,K,D*25
$GNGGA,092426.000,5200.305142,N,00433.779508,E,2,61,0.43,-0.572,M,47.116,M,,*54
$GNGSA,A,3,09,06,03,11,04,19,31,17,01,07,,,0.76,0.43,0.62,1*01
$GNGSA,A,3,66,67,81,83,75,76,68,82,,,,,0.76,0.43,0.62,2*04
$GNGSA,A,3,04,09,36,34,06,05,11,,,,,,0.76,0.43,0.62,3*0D
$GNGSA,A,3,32,29,09,06,35,39,19,23,30,05,25,37,0.76,0.43,0.62,4*03
$GNGSA,A,3,20,,,,,,,,,,,,0.76,0.43,0.62,4*04
$GPGSV,4,1,13,09,64,215,39,06,61,285,34,03,39,094,48,49,30,179,42,1*62
$GPGSV,4,2,13,11,25,311,43,04,69,075,42,19,24,239,40,31,19,040,39,1*6A
$GPGSV,4,3,13,17,13,220,43,01,10,147,45,07,07,173,47,26,04,062,34,1*64
$GPGSV,4,4,13,21,03,279,26,1*5E
$GPGSV,2,1,08,21,03,279,46,06,61,285,49,03,39,094,52,11,25,311,48,8*60
$GPGSV,2,2,08,01,10,147,46,04,69,075,49,26,04,062,49,09,64,215,34,8*62
$GLGSV,3,1,09,74,04,352,32,66,60,040,52,67,53,259,25,81,40,189,39,1*7D
$GLGSV,3,2,09,83,23,328,41,75,21,039,44,76,13,096,46,68,06,245,44,1*78
$GLGSV,3,3,09,82,64,273,39,1*45
$GAGSV,2,1,08,04,23,052,45,09,71,085,42,36,61,167,39,34,56,297,32,7*7E
$GAGSV,2,2,08,06,47,061,31,05,46,212,41,11,14,145,32,21,05,008,35,7*74
$GAGSV,2,1,08,04,23,052,46,09,71,085,51,36,61,167,48,34,56,297,37,1*7A
$GAGSV,2,2,08,06,47,061,50,05,46,212,42,11,14,145,47,21,05,008,31,1*70
$GBGSV,4,1,15,48,,,30,32,48,070,46,29,45,240,37,09,37,066,35,1*43
$GBGSV,4,2,15,06,31,052,44,35,26,313,30,39,23,038,41,19,21,255,37,1*7F
$GBGSV,4,3,15,23,20,081,43,30,18,188,29,05,15,118,36,25,12,032,43,1*76
$GBGSV,4,4,15,37,09,128,44,16,,,38,20,70,263,35,1*7C
$GBGSV,3,1,11,48,,,47,32,48,070,46,29,45,240,43,35,26,313,38,5*44
$GBGSV,3,2,11,39,23,038,48,19,21,255,42,23,20,081,51,30,18,188,48,5*79
$GBGSV,3,3,11,25,12,032,44,37,09,128,44,20,70,263,44,5*43
$GNGLL,5200.305142,N,00433.779508,E,092426.000,A,D*4F
$GNRMC,092427.000,A,5200.305148,N,00433.779478,E,0.01,0.00,170925,,,D,V*06
$GNVTG,0.00,T,,M,0.01,N,0.02,K,D*25
$GNGGA,092427.000,5200.305148,N,00433.779478,E,2,61,0.43,-0.599,M,47.117,M,,*5D
$GNGSA,A,3,09,06,03,11,04,19,31,17,01,07,,,0.76,0.43,0.62,1*01
$GNGSA,A,3,66,67,81,83,75,76,68,82,,,,,0.76,0.43,0.62,2*04
$GNGSA,A,3,04,09,36,34,06,05,11,,,,,,0.76,0.43,0.62,3*0D
$GNGSA,A,3,32,29,09,06,35,39,19,23,30,05,25,37,0.76,0.43,0.62,4*03
$GNGSA,A,3,20,,,,,,,,,,,,0.76,0.43,0.62,4*04
$GPGSV,4,1,13,09,64,215,39,06,61,285,34,03,39,094,48,49,30,179,42,1*62
$GPGSV,4,2,13,11,25,311,43,04,69,075,42,19,24,239,40,31,19,040,39,1*6A
$GPGSV,4,3,13,17,13,220,43,01,10,147,45,07,07,173,48,26,04,062,34,1*6B
$GPGSV,4,4,13,21,03,279,26,1*5E
$GPGSV,2,1,08,21,03,279,46,06,61,285,49,03,39,094,52,11,25,311,48,8*60
$GPGSV,2,2,08,01,10,147,46,04,69,075,49,26,04,062,49,09,64,215,33,8*65
$GLGSV,3,1,09,74,04,352,32,66,60,040,52,67,53,259,25,81,40,189,39,1*7D
$GLGSV,3,2,09,83,23,328,41,75,21,039,44,76,13,096,46,68,06,245,44,1*78
$GLGSV,3,3,09,82,64,271,39,1*47
$GAGSV,2,1,08,04,23,052,45,09,71,085,42,36,61,167,39,34,56,297,32,7*7E
$GAGSV,2,2,08,06,47,061,30,05,46,212,41,11,14,145,33,21,05,008,36,7*77
$GAGSV,2,1,08,04,23,052,46,09,71,085,51,36,61,167,48,34,56,297,37,1*7A
$GAGSV,2,2,08,06,47,061,50,05,46,212,42,11,14,145,46,21,05,008,30,1*70
$GBGSV,4,1,15,48,,,30,32,48,070,46,29,45,240,37,09,37,066,35,1*43
$GBGSV,4,2,15,06,31,052,44,35,26,313,30,39,23,038,41,19,21,255,37,1*7F
$GBGSV,4,3,15,23,20,081,43,30,18,188,29,05,15,118,36,25,12,032,43,1*76
$GBGSV,4,4,15,37,09,128,44,16,,,38,20,70,263,35,1*7C
$GBGSV,3,1,11,48,,,47,32,48,070,46,29,45,240,43,35,26,313,38,5*44
$GBGSV,3,2,11,39,23,038,48,19,21,255,42,23,20,081,51,30,18,188,48,5*79
$GBGSV,3,3,11,25,12,032,44,37,09,128,44,20,70,263,44,5*43
$GNGLL,5200.305148,N,00433.779478,E,092427.000,A,D*42
$GNRMC,092428.000,A,5200.305148,N,00433.779460,E,0.01,0.00,170925,,,D,V*00
$GNVTG,0.00,T,,M,0.01,N,0.02,K,D*25
$GNGGA,092428.000,5200.305148,N,00433.779460,E,2,61,0.43,-0.626,M,47.117,M,,*5C
$GNGSA,A,3,09,06,03,11,04,19,31,17,01,07,,,0.76,0.43,0.62,1*01
$GNGSA,A,3,66,67,81,83,75,76,68,82,,,,,0.76,0.43,0.62,2*04
$GNGSA,A,3,04,09,36,34,06,05,11,,,,,,0.76,0.43,0.62,3*0D
$GNGSA,A,3,32,29,09,06,35,39,19,23,30,05,25,37,0.76,0.43,0.62,4*03
$GNGSA,A,3,20,,,,,,,,,,,,0.76,0.43,0.62,4*04
$GPGSV,4,1,13,09,64,215,39,06,61,285,34,03,39,094,48,49,30,179,42,1*62
$GPGSV,4,2,13,11,25,311,43,04,69,075,42,19,24,239,40,31,19,040,38,1*6B
$GPGSV,4,3,13,17,13,220,43,01,10,147,45,07,07,173,48,26,04,062,34,1*6B
$GPGSV,4,4,13,21,03,279,26,1*5E
$GPGSV,2,1,08,21,03,279,46,06,61,285,49,03,39,094,52,11,25,311,48,8*60
$GPGSV,2,2,08,01,10,147,46,04,69,075,49,26,04,062,49,09,64,215,33,8*65
$GLGSV,3,1,09,74,04,352,32,66,60,040,52,67,53,259,24,81,40,189,39,1*7C
$GLGSV,3,2,09,83,24,327,41,75,21,039,44,76,13,096,46,68,06,245,44,1*70
$GLGSV,3,3,09,82,64,271,39,1*47
$GAGSV,2,1,08,04,23,052,45,09,71,085,42,36,61,167,39,34,56,297,33,7*7F
$GAGSV,2,2,08,06,47,061,29,05,46,212,41,11,14,145,33,21,05,008,36,7*7F
$GAGSV,2,1,08,04,23,052,46,09,71,085,51,36,61,167,48,34,56,297,37,1*7A
$GAGSV,2,2,08,06,47,061,50,05,46,212,42,11,14,145,46,21,05,008,30,1*70
$GBGSV,4,1,15,48,,,30,32,48,070,46,29,45,240,37,09,37,066,35,1*43
$GBGSV,4,2,15,06,31,052,44,35,26,313,30,39,23,038,41,19,21,255,37,1*7F
$GBGSV,4,3,15,23,20,081,42,30,18,188,29,05,15,118,36,25,12,032,43,1*77
$GBGSV,4,4,15,37,09,128,44,16,,,38,20,70,263,35,1*7C
$GBGSV,3,1,11,48,,,47,32,48,070,46,29,45,240,43,35,26,313,38,5*44
$GBGSV,3,2,11,39,23,038,48,19,21,255,42,23,20,081,51,30,18,188,48,5*79
$GBGSV,3,3,11,25,12,032,44,37,09,128,44,20,70,263,44,5*43
$GNGLL,5200.305148,N,00433.779460,E,092428.000,A,D*44
$GNRMC,092429.000,A,5200.305154,N,00433.779436,E,0.01,0.00,170925,,,D,V*0F
$GNVTG,0.00,T,,M,0.01,N,0.01,K,D*26
$GNGGA,092429.000,5200.305154,N,00433.779436,E,2,61,0.43,-0.639,M,47.117,M,,*5D
$GNGSA,A,3,09,06,03,11,04,19,31,17,01,07,,,0.76,0.43,0.62,1*01
$GNGSA,A,3,66,67,81,83,75,76,68,82,,,,,0.76,0.43,0.62,2*04
$GNGSA,A,3,04,09,36,34,06,05,11,,,,,,0.76,0.43,0.62,3*0D
$GNGSA,A,3,32,29,09,06,35,39,19,23,30,05,25,37,0.76,0.43,0.62,4*03
$GNGSA,A,3,20,,,,,,,,,,,,0.76,0.43,0.62,4*04
$GPGSV,4,1,13,09,64,215,39,06,61,285,34,03,39,094,48,49,30,179,42,1*62
$GPGSV,4,2,13,11,25,311,43,04,69,075,42,19,24,239,40,31,19,040,38,1*6B
$GPGSV,4,3,13,17,13,220,43,01,10,147,45,07,07,173,48,26,04,062,34,1*6B
$GPGSV,4,4,13,21,03,279,25,1*5D
$GPGSV,2,1,08,21,03,279,46,06,61,285,49,03,39,094,52,11,25,311,48,8*60
$GPGSV,2,2,08,01,10,147,47,04,69,075,49,26,04,062,50,09,64,215,33,8*6C
$GLGSV,3,1,09,74,04,352,32,66,60,040,52,67,53,259,25,81,40,189,39,1*7D
$GLGSV,3,2,09,83,24,327,41,75,21,039,44,76,13,096,46,68,06,245,44,1*70
$GLGSV,3,3,09,82,64,271,39,1*47
$GAGSV,2,1,08,04,23,052,45,09,71,085,42,36,61,167,39,34,56,297,33,7*7F
$GAGSV,2,2,08,06,47,061,29,05,46,212,41,11,14,145,33,21,05,008,36,7*7F
$GAGSV,2,1,08,04,23,052,46,09,71,085,51,36,61,167,48,34,56,297,37,1*7A
$GAGSV,2,2,08,06,47,061,50,05,46,212,42,11,14,145,46,21,05,008,30,1*70
$GBGSV,4,1,15,48,,,30,32,48,070,46,29,45,240,37,09,37,066,35,1*43
$GBGSV,4,2,15,06,31,052,44,35,26,313,30,39,23,038,40,19,21,255,37,1*7E
$GBGSV,4,3,15,23,20,081,42,30,18,188,29,05,15,118,36,25,12,032,43,1*77
$GBGSV,4,4,15,37,09,128,44,16,,,38,20,70,263,35,1*7C
$GBGSV,3,1,11,48,,,47,32,48,070,46,29,45,240,43,35,26,313,38,5*44
$GBGSV,3,2,11,39,23,038,48,19,21,255,42,23,20,081,51,30,18,188,48,5*79
$GBGSV,3,3,11,25,12,032,44,37,09,128,44,20,70,263,44,5*43
$GNGLL,5200.305154,N,00433.779436,E,092429.000,A,D*4B
$GNRMC,092430.000,A,5200.305160,N,00433.779424,E,0.01,0.00,170925,,,D,V*03
$GNVTG,0.00,T,,M,0.01,N,0.01,K,D*26
$GNGGA,092430.000,5200.305160,N,00433.779424,E,2,61,0.43,-0.658,M,47.116,M,,*57
$GNGSA,A,3,09,06,03,11,04,19,31,17,01,07,,,0.76,0.43,0.62,1*01
$GNGSA,A,3,66,67,81,83,75,76,68,82,,,,,0.76,0.43,0.62,2*04
$GNGSA,A,3,04,09,36,34,06,05,11,,,,,,0.76,0.43,0.62,3*0D
$GNGSA,A,3,32,29,09,06,35,39,19,23,30,05,25,37,0.76,0.43,0.62,4*03
$GNGSA,A,3,20,,,,,,,,,,,,0.76,0.43,0.62,4*04
$GPGSV,4,1,13,09,64,215,39,06,61,285,34,03,39,094,48,49,30,179,42,1*62
$GPGSV,4,2,13,11,25,311,43,04,69,075,42,19,24,239,40,31,19,040,37,1*64
$GPGSV,4,3,13,17,13,220,44,01,10,147,45,07,07,173,48,26,04,062,34,1*6C
$GPGSV,4,4,13,21,03,279,25,1*5D
$GPGSV,2,1,08,21,03,279,46,06,61,285,49,03,39,094,52,11,25,311,47,8*6F
$GPGSV,2,2,08,01,10,147,47,04,69,075,49,26,04,062,50,09,64,215,33,8*6C
$GLGSV,3,1,09,74,04,352,32,66,60,040,52,67,53,259,24,81,40,189,39,1*7C
$GLGSV,3,2,09,83,24,327,41,75,21,039,44,76,13,096,46,68,06,245,44,1*70
$GLGSV,3,3,09,82,64,271,39,1*47
$GAGSV,2,1,08,04,23,052,45,09,71,085,42,36,61,167,39,34,56,297,33,7*7F
$GAGSV,2,2,08,06,47,061,28,05,46,212,41,11,14,145,33,21,05,008,37,7*7F
$GAGSV,2,1,08,04,23,052,46,09,71,085,51,36,61,167,48,34,56,297,37,1*7A
$GAGSV,2,2,08,06,47,061,50,05,46,212,42,11,14,145,46,21,05,008,30,1*70
$GBGSV,4,1,15,48,,,30,32,48,070,46,29,45,240,37,09,37,066,36,1*40
$GBGSV,4,2,15,06,31,052,44,35,26,313,31,39,23,038,40,19,21,255,37,1*7F
$GBGSV,4,3,15,23,20,081,42,30,18,188,29,05,15,118,36,25,12,032,43,1*77
$GBGSV,4,4,15,37,09,128,44,16,,,38,20,70,263,35,1*7C
$GBGSV,3,1,11,48,,,47,32,48,070,46,29,45,240,43,35,26,313,38,5*44
$GBGSV,3,2,11,39,23,038,48,19,21,255,42,23,20,081,51,30,18,188,47,5*76
$GBGSV,3,3,11,25,12,032,44,37,09,128,44,20,70,263,44,5*43
$GNGLL,5200.305160,N,00433.779424,E,092430.000,A,D*47
$GNRMC,092431.000,A,5200.305172,N,00433.779424,E,0.01,0.00,170925,,,D,V*01
$GNVTG,0.00,T,,M,0.01,N,0.02,K,D*25
$GNGGA,092431.000,5200.305172,N,00433.779424,E,2,61,0.43,-0.670,M,47.116,M,,*5F
$GNGSA,A,3,09,06,03,11,04,19,31,17,01,07,,,0.76,0.43,0.62,1*01
$GNGSA,A,3,66,67,81,83,75,76,68,82,,,,,0.76,0.43,0.62,2*04
$GNGSA,A,3,04,09,36,34,06,05,11,,,,,,0.76,0.43,0.62,3*0D
$GNGSA,A,3,32,29,09,06,35,39,19,23,30,05,25,37,0.76,0.43,0.62,4*03
$GNGSA,A,3,20,,,,,,,,,,,,0.76,0.43,0.62,4*04
$GPGSV,4,1,13,09,64,215,39,06,61,285,34,03,39,094,48,49,30,179,42,1*62
$GPGSV,4,2,13,11,25,311,43,04,69,075,42,19,24,239,40,31,19,040,37,1*64
$GPGSV,4,3,13,17,13,220,44,01,10,147,45,07,07,173,48,26,04,062,33,1*6B
$GPGSV,4,4,13,21,03,279,,1*5A
$GPGSV,2,1,08,21,03,279,46,06,61,285,49,03,39,094,52,11,25,311,47,8*6F
$GPGSV,2,2,08,01,10,147,48,04,69,075,49,26,04,062,50,09,64,215,33,8*63
$GLGSV,3,1,09,74,04,352,32,66,60,040,52,67,53,259,24,81,40,189,39,1*7C
$GLGSV,3,2,09,83,24,327,41,75,21,039,44,76,13,096,46,68,06,245,44,1*70
$GLGSV,3,3,09,82,64,271,39,1*47
$GAGSV,2,1,08,04,23,052,45,09,71,085,42,36,61,167,39,34,56,297,33,7*7F
$GAGSV,2,2,08,06,47,061,28,05,46,212,41,11,14,145,33,21,05,008,37,7*7F
$GAGSV,2,1,08,04,23,052,46,09,71,085,51,36,61,167,48,34,56,297,37,1*7A
$GAGSV,2,2,08,06,47,061,50,05,46,212,42,11,14,145,46,21,05,008,31,1*71
$GBGSV,4,1,15,48,,,29,32,48,070,46,29,45,240,37,09,37,066,36,1*48
$GBGSV,4,2,15,06,31,052,44,35,26,313,31,39,23,038,40,19,21,255,37,1*7F
$GBGSV,4,3,15,23,20,081,42,30,18,188,29,05,15,118,36,25,12,032,43,1*77
$GBGSV,4,4,15,37,09,128,44,16,,,38,20,70,263,35,1*7C
$GBGSV,3,1,11,48,,,47,32,48,070,46,29,45,240,43,35,26,313,38,5*44
$GBGSV,3,2,11,39,23,038,48,19,21,255,42,23,20,081,51,30,18,188,47,5*76
$GBGSV,3,3,11,25,12,032,44,37,09,128,44,20,70,263,44,5*43
$GNGLL,5200.305172,N,00433.779424,E,092431.000,A,D*45
$GNRMC,092432.000,A,5200.305172,N,00433.779400,E,0.01,0.00,170925,,,D,V*04
$GNVTG,0.00,T,,M,0.01,N,0.02,K,D*25
$GNGGA,092432.000,5200.305172,N,00433.779400,E,2,61,0.43,-0.700,M,47.117,M,,*5D
$GNGSA,A,3,09,06,03,11,04,19,31,17,01,07,,,0.76,0.43,0.62,1*01
$GNGSA,A,3,66,67,81,83,75,76,68,82,,,,,0.76,0.43,0.62,2*04
$GNGSA,A,3,04,09,36,34,06,05,11,,,,,,0.76,0.43,0.62,3*0D
$GNGSA,A,3,32,29,09,06,35,39,19,23,30,05,25,37,0.76,0.43,0.62,4*03
$GNGSA,A,3,20,,,,,,,,,,,,0.76,0.43,0.62,4*04
$GPGSV,4,1,13,09,64,215,39,06,61,285,34,03,39,094,48,49,30,179,42,1*62
$GPGSV,4,2,13,11,25,311,43,04,69,075,42,19,24,239,40,31,19,040,38,1*6B
$GPGSV,4,3,13,17,13,220,44,01,10,147,44,07,07,173,49,26,04,062,33,1*6B
$GPGSV,4,4,13,21,03,279,,1*5A
$GPGSV,2,1,08,21,03,279,46,06,61,285,49,03,39,094,52,11,25,311,47,8*6F
$GPGSV,2,2,08,01,10,147,48,04,69,075,49,26,04,062,50,09,64,215,33,8*63
$GLGSV,3,1,09,74,04,352,32,66,60,040,52,67,53,259,25,81,40,189,40,1*73
$GLGSV,3,2,09,83,24,327,41,75,21,039,44,76,13,096,46,68,06,245,44,1*70
$GLGSV,3,3,09,82,64,271,40,1*49
$GAGSV,2,1,08,04,23,052,45,09,71,085,42,36,61,167,39,34,56,297,33,7*7F
$GAGSV,2,2,08,06,47,061,28,05,46,212,41,11,14,145,34,21,05,008,37,7*78
$GAGSV,2,1,08,04,23,052,46,09,71,085,51,36,61,167,48,34,56,297,37,1*7A
$GAGSV,2,2,08,06,47,061,50,05,46,212,42,11,14,145,46,21,05,008,31,1*71
$GBGSV,4,1,15,48,,,29,32,48,070,46,29,45,240,37,09,37,066,36,1*48
$GBGSV,4,2,15,06,31,052,44,35,26,313,32,39,23,038,40,19,21,255,37,1*7C
$GBGSV,4,3,15,23,20,081,42,30,18,188,29,05,15,118,36,25,12,032,43,1*77
$GBGSV,4,4,15,37,09,128,44,16,,,38,20,70,263,35,1*7C
$GBGSV,3,1,11,48,,,47,32,48,070,46,29,45,240,43,35,26,313,38,5*44
$GBGSV,3,2,11,39,23,038,48,19,21,255,42,23,20,081,51,30,18,188,47,5*76
$GBGSV,3,3,11,25,12,032,44,37,09,128,44,20,70,263,44,5*43
$GNGLL,5200.305172,N,00433.779400,E,092432.000,A,D*40
$GNRMC,092433.000,A,5200.305190,N,00433.779394,E,0.01,0.00,170925,,,D,V*03
$GNVTG,0.00,T,,M,0.01,N,0.02,K,D*25
$GNGGA,092433.000,5200.305190,N,00433.779394,E,2,61,0.43,-0.709,M,47.117,M,,*53
$GNGSA,A,3,09,06,03,11,04,19,31,17,01,07,,,0.76,0.43,0.62,1*01
$GNGSA,A,3,66,67,81,83,75,76,68,82,,,,,0.76,0.43,0.62,2*04
$GNGSA,A,3,04,09,36,34,06,05,11,,,,,,0.76,0.43,0.62,3*0D
$GNGSA,A,3,32,29,09,06,35,39,19,23,30,05,25,37,0.76,0.43,0.62,4*03
$GNGSA,A,3,20,,,,,,,,,,,,0.76,0.43,0.62,4*04
$GPGSV,4,1,13,09,64,215,39,06,61,285,34,03,39,094,48,49,30,179,42,1*62
$GPGSV,4,2,13,11,25,311,43,04,69,075,42,19,24,239,40,31,19,040,38,1*6B
$GPGSV,4,3,13,17,13,220,44,01,10,147,44,07,07,173,49,26,04,062,32,1*6A
$GPGSV,4,4,13,21,03,279,,1*5A
$GPGSV,2,1,08,21,03,279,45,06,61,285,49,03,39,094,52,11,25,311,47,8*6C
$GPGSV,2,2,08,01,10,147,48,04,69,075,49,26,04,062,50,09,64,215,33,8*63
$GLGSV,3,1,09,74,04,352,32,66,60,040,52,67,53,259,24,81,40,189,40,1*72
$GLGSV,3,2,09,83,24,327,41,75,21,039,44,76,13,096,46,68,06,245,44,1*70
$GLGSV,3,3,09,82,64,271,40,1*49
$GAGSV,2,1,08,04,23,052,45,09,71,085,42,36,61,167,39,34,56,297,33,7*7F
$GAGSV,2,2,08,06,47,061,29,05,46,212,41,11,14,145,34,21,05,008,37,7*79
$GAGSV,2,1,08,04,23,052,46,09,71,085,51,36,61,167,48,34,56,297,37,1*7A
$GAGSV,2,2,08,06,47,061,50,05,46,212,42,11,14,145,45,21,05,008,31,1*72
$GBGSV,4,1,15,48,,,29,32,48,070,46,29,45,240,37,09,37,066,36,1*48
$GBGSV,4,2,15,06,31,052,44,35,26,313,32,39,23,038,40,19,21,255,37,1*7C
$GBGSV,4,3,15,23,20,081,42,30,18,188,29,05,15,118,36,25,12,032,43,1*77
$GBGSV,4,4,15,37,09,128,44,16,,,38,20,70,263,35,1*7C
$GBGSV,3,1,11,48,,,47,32,48,070,46,29,45,240,43,35,26,313,38,5*44
$GBGSV,3,2,11,39,23,038,48,19,21,255,42,23,20,081,51,30,18,188,47,5*76
$GBGSV,3,3,11,25,12,032,44,37,09,128,44,20,70,263,44,5*43
$GNGLL,5200.305190,N,00433.779394,E,092433.000,A,D*47
$GNRMC,092434.000,A,5200.305190,N,00433.779388,E,0.01,0.00,170925,,,D,V*09
$GNVTG,0.00,T,,M,0.01,N,0.02,K,D*25
$GNGGA,092434.000,5200.305190,N,00433.779388,E,2,61,0.43,-0.718,M,47.117,M,,*59
