
211208.log

$GPGGA,000001.000,5138.7725,N,00636.4099,E,1,10,0.96,22.3,M,47.4,M,,*58
$GPGSV,3,1,12,16,67,221,32.3,27,61,292,41.6,23,48,105,32.7,18,41,061,32.8*78
$GPGSV,3,2,12,10,37,150,41.8,26,36,176,39.9,08,28,288,47.2,07,14,320,48.0*7B
$GPGSV,3,3,12,15,09,057,31.0,13,05,030,27.4,30,02,345,42.5,21,01,239,36.7*7A
$GPRMC,000001.000,A,5138.7725,N,00636.4099,E,0.01,126.48,081221,,,A*60
$GPRMC,000001.000,A,5138.7725,N,00636.4099,E,0.01,126.48,081221,,,A*60
211208.log

$GPGGA,000002.000,5138.7725,N,00636.4099,E,1,10,0.96,22.3,M,47.4,M,,*5B
$GPGSV,3,1,12,16,67,221,30.3,27,61,292,41.9,23,48,105,32.2,18,41,061,33.5*7C
$GPGSV,3,2,12,10,37,150,42.0,26,36,176,39.2,08,28,288,47.1,07,14,320,47.3*74
$GPGSV,3,3,12,15,09,057,30.8,13,05,030,28.6,30,02,345,42.1,21,01,239,36.4*79
$GPRMC,000002.000,A,5138.7725,N,00636.4099,E,0.02,126.48,081221,,,A*60
$GPRMC,000002.000,A,5138.7725,N,00636.4099,E,0.02,126.48,081221,,,A*60
211208.log

$GPGGA,000003.000,5138.7725,N,00636.4099,E,1,10,0.96,22.3,M,47.4,M,,*5A
$GPGSV,3,1,12,16,67,221,30.8,27,61,292,43.0,23,48,105,33.2,18,41,061,33.1*79
$GPGSV,3,2,12,10,37,150,42.6,26,36,176,39.3,08,28,288,46.8,07,14,320,47.8*70
$GPGSV,3,3,12,15,09,057,31.0,13,05,030,29.8,30,02,345,42.1,21,01,239,36.8*73
$GPRMC,000003.000,A,5138.7725,N,00636.4099,E,0.01,126.48,081221,,,A*62
$GPRMC,000003.000,A,5138.7725,N,00636.4099,E,0.01,126.48,081221,,,A*62
211208.log

$GPGGA,000004.000,5138.7725,N,00636.4099,E,1,10,0.96,22.3,M,47.4,M,,*5D
$GPGSV,3,1,12,16,67,221,31.1,27,61,292,42.6,23,48,105,33.1,18,41,061,33.4*70
$GPGSV,3,2,12,10,37,150,41.2,26,36,176,39.2,08,28,288,46.7,07,14,320,47.8*79
$GPGSV,3,3,12,15,09,057,31.1,13,05,030,28.6,30,02,345,41.6,21,01,239,37.9*79
$GPRMC,000004.000,A,5138.7725,N,00636.4099,E,0.01,126.48,081221,,,A*65
$GPRMC,000004.000,A,5138.7725,N,00636.4099,E,0.01,126.48,081221,,,A*65
211208.log

$GPGGA,000005.000,5138.7725,N,00636.4099,E,1,10,0.96,22.3,M,47.4,M,,*5C
$GPGSV,3,1,12,16,67,221,31.0,27,61,292,40.4,23,48,105,34.9,18,41,061,33.2*78
$GPGSV,3,2,12,10,37,150,40.4,26,36,176,39.5,08,28,288,45.9,07,14,320,48.5*76
$GPGSV,3,3,12,15,09,057,31.2,13,05,030,27.7,30,02,345,41.7,21,01,239,37.9*75
$GPRMC,000005.000,A,5138.7725,N,00636.4099,E,0.02,126.48,081221,,,A*67
$GPRMC,000005.000,A,5138.7725,N,00636.4099,E,0.02,126.48,081221,,,A*67
211208.log

$GPGGA,000006.000,5138.7725,N,00636.4099,E,1,10,0.96,22.3,M,47.4,M,,*5F
$GPGSV,3,1,12,16,67,221,31.3,27,61,292,42.0,23,48,105,33.1,18,41,061,33.7*77
$GPGSV,3,2,12,10,37,150,40.8,26,36,176,39.6,08,28,288,44.5,07,14,320,47.9*77
$GPGSV,3,3,12,15,09,057,31.1,13,05,030,27.0,30,02,345,41.7,21,01,239,38.5*72
$GPRMC,000006.000,A,5138.7725,N,00636.4099,E,0.01,126.48,081221,,,A*67
$GPRMC,000006.000,A,5138.7725,N,00636.4099,E,0.01,126.48,081221,,,A*67
211208.log

$GPGGA,000007.000,5138.7725,N,00636.4099,E,1,10,0.96,22.3,M,47.4,M,,*5E
$GPGSV,3,1,12,16,67,221,30.6,27,61,292,41.8,23,48,105,33.0,18,41,061,32.0*7F
$GPGSV,3,2,12,10,37,150,40.6,26,36,176,39.1,08,28,288,45.1,07,14,320,47.1*73
$GPGSV,3,3,12,15,09,057,30.6,13,05,030,27.9,30,02,345,41.8,21,01,239,38.9*7E
$GPRMC,000007.000,A,5138.7725,N,00636.4099,E,0.02,126.48,081221,,,A*65
$GPRMC,000007.000,A,5138.7725,N,00636.4099,E,0.02,126.48,081221,,,A*65
211208.log

$GPGGA,000008.000,5138.7725,N,00636.4099,E,1,10,0.96,22.3,M,47.4,M,,*51
$GPGSV,3,1,12,16,67,221,30.2,27,61,292,41.7,23,48,105,32.8,18,41,061,31.4*7A
$GPGSV,3,2,12,10,37,150,39.9,26,36,176,39.6,08,28,288,45.3,07,14,320,46.5*72
$GPGSV,3,3,12,15,09,057,30.4,13,05,030,27.9,30,02,345,41.3,21,01,239,37.9*78
$GPRMC,000008.000,A,5138.7725,N,00636.4099,E,0.03,126.48,081221,,,A*6B
$GPRMC,000008.000,A,5138.7725,N,00636.4099,E,0.03,126.48,081221,,,A*6B
211208.log

$GPGGA,000009.000,5138.7725,N,00636.4099,E,1,10,0.96,22.3,M,47.4,M,,*50
$GPGSV,3,1,12,16,67,221,30.5,27,61,292,41.1,23,48,105,31.0,18,41,061,31.2*76
$GPGSV,3,2,12,10,37,150,40.1,26,36,176,38.0,08,28,288,44.3,07,14,320,46.6*71
$GPGSV,3,3,12,15,09,057,30.1,13,05,030,25.8,30,02,345,41.6,21,01,239,36.9*7A
$GPRMC,000009.000,A,5138.7725,N,00636.4099,E,0.01,126.48,081221,,,A*68
$GPRMC,000009.000,A,5138.7725,N,00636.4099,E,0.01,126.48,081221,,,A*68
211208.log

$GPGGA,000010.000,5138.7725,N,00636.4099,E,1,10,0.96,22.3,M,47.4,M,,*58
$GPGSV,3,1,12,16,67,221,30.6,27,61,292,41.3,23,48,105,30.9,18,41,061,30.7*7B
$GPGSV,3,2,12,10,37,150,39.6,26,36,176,37.9,08,28,288,44.3,07,14,320,46.2*7A
$GPGSV,3,3,12,15,09,057,29.8,13,05,030,27.3,30,02,345,41.8,21,01,239,35.8*7E
$GPRMC,000010.000,A,5138.7725,N,00636.4099,E,0.01,126.48,081221,,,A*60
$GPRMC,000010.000,A,5138.7725,N,00636.4099,E,0.01,126.48,081221,,,A*60
211208.log

$GPGGA,000011.000,5138.7725,N,00636.4099,E,1,10,0.96,22.3,M,47.4,M,,*59
$GPGSV,3,1,12,16,67,221,28.5,27,61,292,41.8,23,48,105,31.7,18,41,061,31.0*73
$GPGSV,3,2,12,10,37,150,39.7,26,36,176,37.6,08,28,288,43.9,07,14,320,46.7*7C
$GPGSV,3,3,12,15,09,057,29.4,13,05,030,24.9,30,02,345,41.9,21,01,239,35.1*73
$GPRMC,000011.000,A,5138.7725,N,00636.4099,E,0.01,126.48,081221,,,A*61
$GPRMC,000011.000,A,5138.7725,N,00636.4099,E,0.01,126.48,081221,,,A*61
211208.log

$GPGGA,000012.000,5138.7725,N,00636.4099,E,1,10,0.96,22.3,M,47.4,M,,*5A
$GPGSV,3,1,12,16,67,221,28.7,27,61,292,42.1,23,48,104,31.4,18,41,061,29.9*79
$GPGSV,3,2,12,10,37,150,40.7,26,36,176,38.8,08,28,288,43.8,07,14,320,45.7*71
$GPGSV,3,3,12,15,09,057,29.6,13,05,030,26.9,30,02,345,41.6,21,01,239,35.1*7C
$GPRMC,000012.000,A,5138.7725,N,00636.4099,E,0.01,126.48,081221,,,A*62
$GPRMC,000012.000,A,5138.7725,N,00636.4099,E,0.01,126.48,081221,,,A*62
211208.log

$GPGGA,000013.000,5138.7725,N,00636.4099,E,1,10,0.96,22.3,M,47.4,M,,*5B
$GPGSV,3,1,12,16,67,221,27.1,27,61,292,41.2,23,48,104,31.2,18,41,061,30.3*74
$GPGSV,3,2,12,10,37,150,40.4,26,36,176,38.9,08,28,288,44.4,07,14,320,47.3*7E
$GPGSV,3,3,12,15,09,057,29.4,13,05,030,27.2,30,02,345,41.7,21,01,239,34.7*72
$GPRMC,000013.000,A,5138.7725,N,00636.4099,E,0.01,126.48,081221,,,A*63
$GPRMC,000013.000,A,5138.7725,N,00636.4099,E,0.01,126.48,081221,,,A*63
211208.log

$GPGGA,000014.000,5138.7725,N,00636.4099,E,1,10,0.96,22.3,M,47.4,M,,*5C
$GPGSV,3,1,12,16,67,221,28.7,27,61,292,41.7,23,48,104,31.6,18,41,061,29.6*71
$GPGSV,3,2,12,10,37,150,39.8,26,36,176,38.1,08,28,288,44.1,07,14,320,46.8*7B
$GPGSV,3,3,12,15,09,057,29.5,13,05,030,23.6,30,02,345,41.2,21,01,239,34.6*77
$GPRMC,000014.000,A,5138.7725,N,00636.4099,E,0.01,126.48,081221,,,A*64
$GPRMC,000014.000,A,5138.7725,N,00636.4099,E,0.01,126.48,081221,,,A*64
211208.log

$GPGGA,000015.000,5138.7725,N,00636.4099,E,1,10,0.96,22.3,M,47.4,M,,*5D
$GPGSV,3,1,12,16,67,221,28.7,27,61,292,42.1,23,48,104,32.0,18,41,061,27.8*71
$GPGSV,3,2,12,10,37,150,40.7,26,36,176,39.0,08,28,288,45.1,07,14,320,46.1*72
$GPGSV,3,3,12,15,09,057,29.5,13,05,030,24.3,30,02,345,41.4,21,01,239,35.0*74
$GPRMC,000015.000,A,5138.7725,N,00636.4099,E,0.00,126.48,081221,,,A*64
$GPRMC,000015.000,A,5138.7725,N,00636.4099,E,0.00,126.48,081221,,,A*64
211208.log

$GPGGA,000016.000,5138.7725,N,00636.4099,E,1,10,0.96,22.3,M,47.4,M,,*5E
$GPGSV,3,1,12,16,67,221,30.1,27,61,292,40.4,23,48,104,32.4,18,41,061,28.3*79
$GPGSV,3,2,12,10,37,150,40.2,26,36,176,38.3,08,28,288,46.6,07,14,320,46.6*76
$GPGSV,3,3,12,15,09,057,29.7,13,05,030,23.4,30,02,345,41.2,21,01,239,34.9*78
$GPRMC,000016.000,A,5138.7725,N,00636.4099,E,0.03,126.48,081221,,,A*64
$GPRMC,000016.000,A,5138.7725,N,00636.4099,E,0.03,126.48,081221,,,A*64
211208.log

[DEBUG] filename (battery): 211208.bat
$GPGGA,000017.000,5138.7725,N,00636.4099,E,1,10,0.96,22.3,M,47.4,M,,*5F
$GPGSV,3,1,12,16,67,221,26.9,27,61,292,40.7,23,48,104,32.9,18,41,061,24.5*72
$GPGSV,3,2,12,10,37,150,40.0,26,36,176,40.4,08,28,288,45.2,07,14,320,44.9*76
$GPGSV,3,3,12,15,09,057,29.8,13,05,030,22.5,30,02,345,41.5,21,01,239,35.3*7B
$GPRMC,000017.000,A,5138.7725,N,00636.4099,E,0.01,126.48,081221,,,A*67
$GPRMC,000017.000,A,5138.7725,N,00636.4099,E,0.01,126.48,081221,,,A*67
211208.log

$GPGGA,000018.000,5138.7725,N,00636.4099,E,1,10,0.96,22.3,M,47.4,M,,*50
$GPGSV,3,1,12,16,67,221,27.1,27,61,292,41.2,23,48,104,33.0,18,41,061,26.8*78
$GPGSV,3,2,12,10,37,150,40.0,26,36,176,39.3,08,28,288,44.1,07,14,320,46.0*76
$GPGSV,3,3,12,15,09,057,29.3,13,05,030,24.3,30,02,345,41.7,21,01,239,35.0*71
$GPRMC,000018.000,A,5138.7725,N,00636.4099,E,0.02,126.48,081221,,,A*6B
$GPRMC,000018.000,A,5138.7725,N,00636.4099,E,0.02,126.48,081221,,,A*6B
211208.log

$GPGGA,000019.000,5138.7725,N,00636.4099,E,1,10,0.96,22.3,M,47.4,M,,*51
$GPGSV,3,1,12,16,67,221,26.7,27,61,292,39.2,23,48,104,32.9,18,41,061,24.7*75
$GPGSV,3,2,12,10,37,150,40.2,26,36,176,39.6,08,28,288,46.2,07,14,320,45.6*75
$GPGSV,3,3,12,15,09,057,28.7,13,05,030,25.3,30,02,345,41.3,21,01,239,35.3*72
$GPRMC,000019.000,A,5138.7725,N,00636.4099,E,0.02,126.48,081221,,,A*6A
$GPRMC,000019.000,A,5138.7725,N,00636.4099,E,0.02,126.48,081221,,,A*6A
211208.log

$GPGGA,000020.000,5138.7725,N,00636.4099,E,1,10,0.96,22.3,M,47.4,M,,*5B
$GPGSV,3,1,12,16,67,221,27.2,27,61,292,40.4,23,48,104,32.8,18,41,061,25.6*78
$GPGSV,3,2,12,10,37,150,40.5,26,36,176,40.4,08,28,288,44.7,07,14,320,45.3*7C
$GPGSV,3,3,12,15,09,057,28.7,13,05,030,25.1,30,02,345,41.6,21,01,239,34.5*72
$GPRMC,000020.000,A,5138.7725,N,00636.4099,E,0.01,126.48,081221,,,A*63
$GPRMC,000020.000,A,5138.7725,N,00636.4099,E,0.01,126.48,081221,,,A*63
211208.log

$GPGGA,000021.000,5138.7725,N,00636.4099,E,1,10,0.96,22.3,M,47.4,M,,*5A
$GPGSV,3,1,12,16,67,221,28.3,27,61,292,42.3,23,48,104,32.9,18,41,061,24.3*76
$GPGSV,3,2,12,10,37,150,40.1,26,36,176,39.3,08,28,288,43.8,07,14,320,46.1*78
$GPGSV,3,3,12,15,09,057,29.3,13,05,030,27.9,30,02,345,41.4,21,01,239,34.9*73
$GPRMC,000021.000,A,5138.7725,N,00636.4099,E,0.02,126.48,081221,,,A*61
$GPRMC,000021.000,A,5138.7725,N,00636.4099,E,0.02,126.48,081221,,,A*61
211208.log

$GPGGA,000022.000,5138.7725,N,00636.4099,E,1,10,0.96,22.3,M,47.4,M,,*59
$GPGSV,3,1,12,16,67,221,29.0,27,61,292,40.6,23,48,104,32.8,18,41,061,26.6*75
$GPGSV,3,2,12,10,37,150,40.8,26,36,176,40.0,08,28,288,42.7,07,14,320,45.7*77
$GPGSV,3,3,12,15,09,057,27.3,13,05,030,28.1,30,02,345,41.6,21,01,239,35.8*78
$GPRMC,000022.000,A,5138.7725,N,00636.4099,E,0.01,126.48,081221,,,A*61
$GPRMC,000022.000,A,5138.7725,N,00636.4099,E,0.01,126.48,081221,,,A*61
211208.log

$GPGGA,000023.000,5138.7725,N,00636.4099,E,1,10,0.96,22.3,M,47.4,M,,*58
$GPGSV,3,1,12,16,67,221,29.2,27,61,292,42.1,23,48,104,32.4,18,41,061,26.6*7E
$GPGSV,3,2,12,10,37,150,40.8,26,36,176,40.3,08,28,288,44.6,07,14,320,45.5*71
$GPGSV,3,3,12,15,09,057,29.8,13,05,030,28.0,30,02,345,41.6,21,01,239,36.2*75
$GPRMC,000023.000,A,5138.7725,N,00636.4099,E,0.01,126.48,081221,,,A*60
$GPRMC,000023.000,A,5138.7725,N,00636.4099,E,0.01,126.48,081221,,,A*60
211208.log

$GPGGA,000024.000,5138.7725,N,00636.4099,E,1,10,0.96,22.3,M,47.4,M,,*5F
$GPGSV,3,1,12,16,67,221,30.9,27,61,292,42.5,23,48,104,32.5,18,41,061,27.4*7B
$GPGSV,3,2,12,10,37,150,40.6,26,36,176,39.8,08,28,288,44.0,07,14,320,45.0*79
$GPGSV,3,3,12,15,09,057,29.5,13,05,030,28.3,30,02,345,42.0,21,01,239,36.1*7D
$GPRMC,000024.000,A,5138.7725,N,00636.4099,E,0.00,126.48,081221,,,A*66
$GPRMC,000024.000,A,5138.7725,N,00636.4099,E,0.00,126.48,081221,,,A*66
211208.log

$GPGGA,000025.000,5138.7725,N,00636.4099,E,1,10,0.96,22.3,M,47.4,M,,*5E
$GPGSV,3,1,12,16,67,221,30.8,27,61,292,40.7,23,48,104,32.6,18,41,061,27.2*7F
$GPGSV,3,2,12,10,37,150,40.2,26,36,176,39.3,08,28,288,43.6,07,14,320,45.4*73
$GPGSV,3,3,12,15,09,057,28.2,13,05,030,27.0,30,02,345,42.6,21,01,239,36.3*73
$GPRMC,000025.000,A,5138.7725,N,00636.4099,E,0.02,126.48,081221,,,A*65
$GPRMC,000025.000,A,5138.7725,N,00636.4099,E,0.02,126.48,081221,,,A*65
211208.log

$GPGGA,000026.000,5138.7725,N,00636.4099,E,1,10,0.96,22.3,M,47.4,M,,*5D
$GPGSV,3,1,12,16,67,221,26.5,27,61,292,42.1,23,48,104,33.0,18,41,061,28.2*79
$GPGSV,3,2,12,10,37,150,40.6,26,36,176,39.4,08,28,288,42.9,07,14,320,45.8*72
$GPGSV,3,3,12,15,09,057,27.8,13,05,030,26.6,30,02,345,42.6,21,01,239,36.6*74
$GPRMC,000026.000,A,5138.7725,N,00636.4099,E,0.02,126.48,081221,,,A*66
$GPRMC,000026.000,A,5138.7725,N,00636.4099,E,0.02,126.48,081221,,,A*66
211208.log

$GPGGA,000027.000,5138.7725,N,00636.4099,E,1,10,0.96,22.3,M,47.4,M,,*5C
$GPGSV,3,1,12,16,67,221,27.8,27,61,292,42.1,23,48,104,33.0,18,41,061,28.3*74
$GPGSV,3,2,12,10,37,150,40.3,26,36,176,39.4,08,28,288,42.9,07,14,320,46.1*7D
$GPGSV,3,3,12,15,09,057,29.4,13,05,030,28.3,30,02,345,42.7,21,01,239,36.9*73
$GPRMC,000027.000,A,5138.7725,N,00636.4099,E,0.01,126.48,081221,,,A*64
$GPRMC,000027.000,A,5138.7725,N,00636.4099,E,0.01,126.48,081221,,,A*64
211208.log

$GPGGA,000028.000,5138.7725,N,00636.4099,E,1,10,0.96,22.3,M,47.4,M,,*53
$GPGSV,3,1,12,16,67,221,30.1,27,61,292,42.1,23,48,104,33.2,18,41,061,31.3*71
$GPGSV,3,2,12,10,37,150,39.6,26,36,176,39.8,08,28,288,43.8,07,14,320,46.6*7D
$GPGSV,3,3,12,15,09,057,28.6,13,05,030,30.1,30,02,345,42.5,21,01,239,35.7*74
$GPRMC,000028.000,A,5138.7725,N,00636.4099,E,0.00,126.48,081221,,,A*6A
$GPRMC,000028.000,A,5138.7725,N,00636.4099,E,0.00,126.48,081221,,,A*6A
211208.log

$GPGGA,000029.000,5138.7725,N,00636.4099,E,1,10,0.96,22.3,M,47.4,M,,*52
$GPGSV,3,1,12,16,67,221,30.1,27,61,292,42.2,23,48,104,33.3,18,41,061,31.3*73
$GPGSV,3,2,12,10,37,150,39.3,26,36,176,38.2,08,28,288,43.5,07,14,320,46.7*7F
$GPGSV,3,3,12,15,09,057,27.9,13,05,030,29.7,30,02,345,42.7,21,01,239,36.2*7E
$GPRMC,000029.000,A,5138.7725,N,00636.4099,E,0.03,126.48,081221,,,A*68
$GPRMC,000029.000,A,5138.7725,N,00636.4099,E,0.03,126.48,081221,,,A*68
211208.log

$GPGGA,000030.000,5138.7725,N,00636.4099,E,1,10,0.96,22.3,M,47.4,M,,*5A
$GPGSV,3,1,12,16,67,221,30.4,27,61,292,41.4,23,48,104,33.6,18,41,061,29.8*74
$GPGSV,3,2,12,10,37,150,38.8,26,36,176,39.0,08,28,288,41.9,07,14,320,46.8*77
$GPGSV,3,3,12,15,09,057,28.3,13,05,030,31.6,30,02,345,42.5,21,01,239,36.3*70
$GPRMC,000030.000,A,5138.7725,N,00636.4099,E,0.04,126.48,081221,,,A*67
$GPRMC,000030.000,A,5138.7725,N,00636.4099,E,0.04,126.48,081221,,,A*67
211208.log

$GPGGA,000031.000,5138.7725,N,00636.4099,E,1,10,0.96,22.3,M,47.4,M,,*5B
$GPGSV,3,1,12,16,67,221,30.7,27,61,292,42.9,23,48,104,33.7,18,41,061,31.2*7B
$GPGSV,3,2,12,10,37,150,39.6,26,36,176,39.8,08,28,288,43.4,07,14,320,46.6*71
$GPGSV,3,3,12,15,09,057,28.4,13,05,030,31.4,30,02,345,42.4,21,01,239,36.1*76
$GPRMC,000031.000,A,5138.7725,N,00636.4099,E,0.01,126.48,081221,,,A*63
$GPRMC,000031.000,A,5138.7725,N,00636.4099,E,0.01,126.48,081221,,,A*63
211208.log

$GPGGA,000032.000,5138.7725,N,00636.4099,E,1,10,0.96,22.3,M,47.4,M,,*58
$GPGSV,3,1,12,16,67,221,30.7,27,61,292,41.5,23,48,104,33.8,18,41,061,29.5*75
$GPGSV,3,2,12,10,37,150,39.0,26,36,176,38.7,08,29,288,41.5,07,14,320,46.6*7B
$GPGSV,3,3,12,15,09,057,29.5,13,05,030,31.7,30,02,345,42.1,21,01,239,35.8*7A
$GPRMC,000032.000,A,5138.7725,N,00636.4099,E,0.02,126.48,081221,,,A*63
$GPRMC,000032.000,A,5138.7725,N,00636.4099,E,0.02,126.48,081221,,,A*63
211208.log

$GPGGA,000033.000,5138.7725,N,00636.4099,E,1,10,0.96,22.3,M,47.4,M,,*59
$GPGSV,3,1,12,16,67,221,30.7,27,61,292,41.8,23,48,104,33.9,18,41,061,31.7*72
$GPGSV,3,2,12,10,37,150,39.1,26,36,176,39.9,08,29,288,42.6,07,14,320,45.9*79
$GPGSV,3,3,12,15,09,057,28.9,13,05,030,32.1,30,02,345,42.3,21,01,239,36.6*7D
$GPRMC,000033.000,A,5138.7725,N,00636.4099,E,0.00,126.48,081221,,,A*60
$GPRMC,000033.000,A,5138.7725,N,00636.4099,E,0.00,126.48,081221,,,A*60
211208.log

$GPGGA,000034.000,5138.7725,N,00636.4099,E,1,10,0.96,22.3,M,47.4,M,,*5E
$GPGSV,3,1,12,16,67,221,30.2,27,61,292,40.0,23,48,104,34.4,18,41,061,32.4*74
$GPGSV,3,2,12,10,37,149,38.3,26,36,176,40.1,08,29,288,43.7,07,14,320,46.2*7C
$GPGSV,3,3,12,15,09,057,28.6,13,05,030,31.4,30,02,345,42.1,21,01,239,36.7*77
$GPRMC,000034.000,A,5138.7725,N,00636.4099,E,0.00,126.48,081221,,,A*67
$GPRMC,000034.000,A,5138.7725,N,00636.4099,E,0.00,126.48,081221,,,A*67
211208.log

$GPGGA,000035.000,5138.7725,N,00636.4099,E,1,10,0.96,22.3,M,47.4,M,,*5F
$GPGSV,3,1,12,16,67,221,30.6,27,61,292,40.8,23,48,104,34.9,18,41,061,30.9*7A
$GPGSV,3,2,12,10,37,149,37.9,26,36,176,39.3,08,29,288,44.7,07,14,320,46.6*76
$GPGSV,3,3,12,15,09,057,29.6,13,05,030,31.3,30,02,345,42.3,21,01,239,36.6*72
$GPRMC,000035.000,A,5138.7725,N,00636.4099,E,0.01,126.48,081221,,,A*67
$GPRMC,000035.000,A,5138.7725,N,00636.4099,E,0.01,126.48,081221,,,A*67
211208.log

$GPGGA,000036.000,5138.7725,N,00636.4099,E,1,10,0.96,22.3,M,47.4,M,,*5C
$GPGSV,3,1,12,16,67,221,31.2,27,61,292,41.3,23,48,104,35.3,18,41,061,30.5*72
$GPGSV,3,2,12,10,37,149,37.9,26,36,176,39.0,08,29,288,42.9,07,14,320,45.8*70
$GPGSV,3,3,12,15,09,057,29.3,13,05,030,32.4,30,02,345,41.5,21,01,239,36.5*75
$GPRMC,000036.000,A,5138.7725,N,00636.4099,E,0.01,126.48,081221,,,A*64
$GPRMC,000036.000,A,5138.7725,N,00636.4099,E,0.01,126.48,081221,,,A*64
211208.log

$GPGGA,000037.000,5138.7725,N,00636.4099,E,1,10,0.96,22.3,M,47.4,M,,*5D
$GPGSV,3,1,12,16,67,221,31.5,27,61,292,41.6,23,48,104,35.5,18,41,061,30.2*71
$GPGSV,3,2,12,10,37,149,37.8,26,36,176,40.9,08,29,288,45.0,07,14,320,45.5*75
$GPGSV,3,3,12,15,09,057,30.5,13,05,030,33.1,30,02,345,42.2,21,01,239,37.3*7C
$GPRMC,000037.000,A,5138.7725,N,00636.4099,E,0.01,126.48,081221,,,A*65
$GPRMC,000037.000,A,5138.7725,N,00636.4099,E,0.01,126.48,081221,,,A*65
211208.log

$GPGGA,000038.000,5138.7725,N,00636.4099,E,1,10,0.96,22.3,M,47.4,M,,*52
$GPGSV,3,1,12,16,67,221,31.7,27,61,292,42.7,23,48,104,35.8,18,41,061,30.9*77
$GPGSV,3,2,12,10,37,149,38.7,26,36,176,39.8,08,29,288,46.9,07,14,320,45.0*75
$GPGSV,3,3,12,15,09,057,29.3,13,05,030,33.2,30,02,345,41.5,21,01,239,36.9*7E
$GPRMC,000038.000,A,5138.7725,N,00636.4099,E,0.03,126.48,081221,,,A*68
$GPRMC,000038.000,A,5138.7725,N,00636.4099,E,0.03,126.48,081221,,,A*68
211208.log

$GPGGA,000039.000,5138.7725,N,00636.4099,E,1,10,0.96,22.3,M,47.4,M,,*53
$GPGSV,3,1,12,16,67,221,31.5,27,61,292,42.1,23,48,104,36.1,18,41,061,27.9*7F
$GPGSV,3,2,12,10,37,149,39.1,26,36,176,40.1,08,29,288,44.8,07,14,320,45.1*77
$GPGSV,3,3,12,15,09,057,29.3,13,05,030,32.2,30,02,345,42.0,21,01,239,37.0*71
$GPRMC,000039.000,A,5138.7725,N,00636.4099,E,0.03,126.48,081221,,,A*69
$GPRMC,000039.000,A,5138.7725,N,00636.4099,E,0.03,126.48,081221,,,A*69
211208.log

$GPGGA,000040.000,5138.7725,N,00636.4099,E,1,10,0.96,22.3,M,47.4,M,,*5D
$GPGSV,3,1,12,16,67,220,31.8,27,61,292,42.9,23,48,104,36.4,18,41,061,25.0*75
$GPGSV,3,2,12,10,37,149,39.3,26,36,176,39.3,08,29,288,44.7,07,14,320,45.2*75
$GPGSV,3,3,12,15,09,057,27.7,13,05,030,32.1,30,02,345,41.6,21,01,239,36.8*74
$GPRMC,000040.000,A,5138.7725,N,00636.4099,E,0.01,126.48,081221,,,A*65
$GPRMC,000040.000,A,5138.7725,N,00636.4099,E,0.01,126.48,081221,,,A*65
211208.log

$GPGGA,000041.000,5138.7725,N,00636.4099,E,1,10,0.96,22.3,M,47.4,M,,*5C
$GPGSV,3,1,12,16,67,220,32.1,27,61,292,43.4,23,48,104,36.7,18,41,061,23.0*76
$GPGSV,3,2,12,10,37,149,38.6,26,36,176,38.8,08,29,288,46.1,07,14,320,45.5*78
$GPGSV,3,3,12,15,09,057,28.0,13,05,030,31.5,30,02,345,41.8,21,01,239,37.5*79
$GPRMC,000041.000,A,5138.7725,N,00636.4099,E,0.01,126.48,081221,,,A*64
$GPRMC,000041.000,A,5138.7725,N,00636.4099,E,0.01,126.48,081221,,,A*64
211208.log

$GPGGA,000042.000,5138.7725,N,00636.4099,E,1,10,0.96,22.3,M,47.4,M,,*5F
$GPGSV,3,1,12,16,67,220,31.9,27,61,292,41.0,23,48,104,37.0,18,41,061,25.2*79
$GPGSV,3,2,12,10,37,149,38.8,26,36,176,40.6,08,29,288,45.6,07,14,320,45.5*73
$GPGSV,3,3,12,15,09,057,27.9,13,05,030,32.6,30,02,345,42.1,21,01,239,37.3*73
$GPRMC,000042.000,A,5138.7725,N,00636.4099,E,0.01,126.48,081221,,,A*67
$GPRMC,000042.000,A,5138.7725,N,00636.4099,E,0.01,126.48,081221,,,A*67
211208.log

$GPGGA,000043.000,5138.7725,N,00636.4099,E,1,10,0.96,22.3,M,47.4,M,,*5E
$GPGSV,3,1,12,16,67,220,29.9,27,61,292,42.6,23,48,104,37.2,18,41,061,23.6*75
$GPGSV,3,2,12,10,37,149,39.3,26,36,176,39.5,08,29,288,44.8,07,14,320,44.0*7F
$GPGSV,3,3,12,15,09,057,26.8,13,05,030,32.3,30,02,345,41.8,21,01,239,37.9*76
$GPRMC,000043.000,A,5138.7725,N,00636.4099,E,0.01,126.48,081221,,,A*66
$GPRMC,000043.000,A,5138.7725,N,00636.4099,E,0.01,126.48,081221,,,A*66
211208.log

$GPGGA,000044.000,5138.7725,N,00636.4099,E,1,10,0.96,22.3,M,47.4,M,,*59
$GPGSV,3,1,12,16,67,220,32.1,27,61,292,41.5,23,48,104,36.9,18,41,061,23.6*7D
$GPGSV,3,2,12,10,37,149,40.0,26,36,176,40.2,08,29,288,44.9,07,14,320,44.2*78
$GPGSV,3,3,12,15,09,057,26.3,13,05,030,31.5,30,02,345,42.0,21,01,239,37.1*7B
$GPRMC,000044.000,A,5138.7725,N,00636.4099,E,0.01,126.48,081221,,,A*61
$GPRMC,000044.000,A,5138.7725,N,00636.4099,E,0.01,126.48,081221,,,A*61
211208.log

$GPGGA,000045.000,5138.7725,N,00636.4099,E,1,10,0.96,22.3,M,47.4,M,,*58
$GPGSV,3,1,12,16,67,220,32.4,27,61,292,42.3,23,48,104,36.7,18,41,061,23.6*73
$GPGSV,3,2,12,10,37,149,39.3,26,36,176,40.0,08,29,288,45.4,07,14,320,44.5*7C
$GPGSV,3,3,12,15,09,057,28.2,13,05,030,31.8,30,02,345,42.1,21,01,240,37.9*7E
$GPRMC,000045.000,A,5138.7725,N,00636.4099,E,0.02,126.48,081221,,,A*63
$GPRMC,000045.000,A,5138.7725,N,00636.4099,E,0.02,126.48,081221,,,A*63
211208.log

$GPGGA,000046.000,5138.7725,N,00636.4099,E,1,10,0.96,22.3,M,47.4,M,,*5B
$GPGSV,3,1,12,16,67,220,31.4,27,61,292,42.8,23,48,104,35.7,18,41,061,20.7*7A
$GPGSV,3,2,12,10,37,149,39.9,26,36,176,39.6,08,29,288,45.9,07,14,320,43.6*77
$GPGSV,3,3,12,15,09,057,28.8,13,05,030,32.4,30,02,345,41.5,21,01,240,37.8*7D
$GPRMC,000046.000,A,5138.7725,N,00636.4099,E,0.03,126.48,081221,,,A*61
$GPRMC,000046.000,A,5138.7725,N,00636.4099,E,0.03,126.48,081221,,,A*61
211208.log

$GPGGA,000047.000,5138.7725,N,00636.4099,E,1,10,0.96,22.3,M,47.4,M,,*5A
$GPGSV,3,1,12,16,67,220,32.1,27,61,292,43.7,23,48,104,35.0,18,41,061,22.9*79
$GPGSV,3,2,12,10,37,149,39.7,26,36,176,39.9,08,29,288,44.8,07,14,320,44.6*71
$GPGSV,3,3,12,15,09,057,27.1,13,05,030,31.4,30,02,345,41.5,21,01,240,36.8*79
$GPRMC,000047.000,A,5138.7725,N,00636.4099,E,0.00,126.48,081221,,,A*63
$GPRMC,000047.000,A,5138.7725,N,00636.4099,E,0.00,126.48,081221,,,A*63
211208.log

$GPGGA,000048.000,5138.7725,N,00636.4099,E,1,10,0.96,22.3,M,47.4,M,,*55
$GPGSV,3,1,12,16,67,220,32.4,27,61,292,43.3,23,48,104,35.3,18,41,061,22.1*73
$GPGSV,3,2,12,10,37,149,40.2,26,36,176,38.3,08,29,288,44.6,07,14,320,45.1*79
$GPGSV,3,3,12,15,09,057,26.4,13,05,030,31.6,30,02,345,41.4,21,01,240,37.1*76
$GPRMC,000048.000,A,5138.7725,N,00636.4099,E,0.01,126.48,081221,,,A*6D
$GPRMC,000048.000,A,5138.7725,N,00636.4099,E,0.01,126.48,081221,,,A*6D
211208.log

$GPGGA,000049.000,5138.7725,N,00636.4099,E,1,10,0.96,22.3,M,47.4,M,,*54
$GPGSV,3,1,12,16,67,220,32.6,27,61,292,42.5,23,48,104,35.2,18,41,061,22.0*76
$GPGSV,3,2,12,10,37,149,40.2,26,36,176,38.6,08,29,288,45.0,07,14,320,44.0*7B
$GPGSV,3,3,12,15,09,057,25.8,13,05,030,31.1,30,02,345,41.4,21,01,240,37.1*7E
$GPRMC,000049.000,A,5138.7725,N,00636.4099,E,0.01,126.48,081221,,,A*6C
$GPRMC,000049.000,A,5138.7725,N,00636.4099,E,0.01,126.48,081221,,,A*6C
211208.log

$GPGGA,000050.000,5138.7725,N,00636.4099,E,1,10,0.96,22.3,M,47.4,M,,*5C
$GPGSV,3,1,12,16,67,220,32.3,27,61,292,43.5,23,48,104,35.2,18,41,061,25.9*7C
$GPGSV,3,2,12,10,37,149,40.4,26,36,176,38.2,08,29,288,45.1,07,14,320,43.4*7B
$GPGSV,3,3,12,15,09,057,27.4,13,05,030,31.6,30,02,345,41.1,21,01,240,36.1*73
$GPRMC,000050.000,A,5138.7725,N,00636.4099,E,0.01,126.48,081221,,,A*64
$GPRMC,000050.000,A,5138.7725,N,00636.4099,E,0.01,126.48,081221,,,A*64
211208.log

$GPGGA,000051.000,5138.7725,N,00636.4099,E,1,10,0.96,22.3,M,47.4,M,,*5D
$GPGSV,3,1,12,16,67,220,32.4,27,62,292,43.7,23,48,104,33.9,18,41,061,27.1*7D
$GPGSV,3,2,12,10,37,149,39.1,26,36,176,37.9,08,29,288,43.5,07,14,320,42.9*7A
$GPGSV,3,3,12,15,09,057,25.1,13,05,030,31.9,30,02,345,40.7,21,01,240,36.3*7E
$GPRMC,000051.000,A,5138.7725,N,00636.4099,E,0.00,126.48,081221,,,A*64
$GPRMC,000051.000,A,5138.7725,N,00636.4099,E,0.00,126.48,081221,,,A*64
211208.log

$GPGGA,000052.000,5138.7725,N,00636.4099,E,1,10,0.96,22.3,M,47.4,M,,*5E
$GPGSV,3,1,12,16,67,220,32.2,27,62,292,42.6,23,48,104,33.2,18,41,061,23.8*7D
$GPGSV,3,2,12,10,37,149,38.7,26,36,176,38.9,08,29,288,45.0,07,14,320,42.2*7A
$GPGSV,3,3,12,15,09,057,24.7,13,05,030,32.1,30,02,345,41.1,21,01,240,36.8*7E
$GPRMC,000052.000,A,5138.7725,N,00636.4099,E,0.03,126.48,081221,,,A*64
$GPRMC,000052.000,A,5138.7725,N,00636.4099,E,0.03,126.48,081221,,,A*64
211208.log

$GPGGA,000053.000,5138.7725,N,00636.4099,E,1,10,0.96,22.3,M,47.4,M,,*5F
$GPGSV,3,1,12,16,67,220,32.4,27,62,292,42.9,23,48,104,34.6,18,41,061,26.3*79
$GPGSV,3,2,12,10,37,149,38.6,26,36,176,37.6,08,29,288,44.5,07,14,320,41.8*76
$GPGSV,3,3,12,15,09,057,25.9,13,05,030,32.2,30,02,345,40.7,21,01,240,36.6*7B
$GPRMC,000053.000,A,5138.7725,N,00636.4099,E,0.02,126.48,081221,,,A*64
$GPRMC,000053.000,A,5138.7725,N,00636.4099,E,0.02,126.48,081221,,,A*64
211208.log

$GPGGA,000054.000,5138.7725,N,00636.4099,E,1,10,0.96,22.3,M,47.4,M,,*58
$GPGSV,3,1,12,16,67,220,32.3,27,62,292,44.4,23,48,104,34.6,18,41,061,27.2*75
$GPGSV,3,2,12,10,37,149,38.0,26,36,176,36.7,08,29,288,45.8,07,14,320,41.0*74
$GPGSV,3,3,12,15,09,057,28.4,13,05,030,31.6,30,02,345,40.5,21,01,240,36.7*7F
$GPRMC,000054.000,A,5138.7725,N,00636.4099,E,0.00,126.48,081221,,,A*61
$GPRMC,000054.000,A,5138.7725,N,00636.4099,E,0.00,126.48,081221,,,A*61
211208.log

$GPGGA,000055.000,5138.7725,N,00636.4099,E,1,10,0.96,22.3,M,47.4,M,,*59
$GPGSV,3,1,12,16,67,220,32.0,27,62,292,43.0,23,48,104,34.3,18,41,061,28.0*7D
$GPGSV,3,2,12,10,37,149,38.3,26,36,176,36.3,08,29,288,44.9,07,14,320,42.5*75
$GPGSV,3,3,12,15,09,057,27.3,13,05,030,31.7,30,02,345,40.2,21,01,240,35.9*7C
$GPRMC,000055.000,A,5138.7725,N,00636.4099,E,0.01,126.48,081221,,,A*61
$GPRMC,000055.000,A,5138.7725,N,00636.4099,E,0.01,126.48,081221,,,A*61
211208.log

$GPGGA,000056.000,5138.7725,N,00636.4099,E,1,10,0.96,22.3,M,47.4,M,,*5A
$GPGSV,3,1,12,16,67,220,32.4,27,62,292,43.4,23,48,104,34.1,18,41,061,26.6*77
$GPGSV,3,2,12,10,37,149,37.6,26,36,176,35.7,08,29,288,46.2,07,14,320,41.3*74
$GPGSV,3,3,12,15,09,057,27.7,13,05,030,32.1,30,02,345,39.9,21,01,240,35.8*79
$GPRMC,000056.000,A,5138.7725,N,00636.4099,E,0.01,126.48,081221,,,A*62
$GPRMC,000056.000,A,5138.7725,N,00636.4099,E,0.01,126.48,081221,,,A*62
211208.log

$GPGGA,000057.000,5138.7725,N,00636.4099,E,1,10,0.96,22.3,M,47.4,M,,*5B
$GPGSV,3,1,12,16,67,220,32.6,27,62,292,43.8,23,48,104,34.5,18,41,061,28.7*72
$GPGSV,3,2,12,10,37,149,36.8,26,36,176,36.7,08,29,288,46.1,07,14,320,41.9*71
$GPGSV,3,3,12,15,09,057,28.3,13,05,030,31.6,30,02,345,39.2,21,01,240,35.4*71
$GPRMC,000057.000,A,5138.7725,N,00636.4099,E,0.01,126.48,081221,,,A*63
$GPRMC,000057.000,A,5138.7725,N,00636.4099,E,0.01,126.48,081221,,,A*63
211208.log

$GPGGA,000058.000,5138.7725,N,00636.4099,E,1,10,0.96,22.3,M,47.4,M,,*54
$GPGSV,3,1,12,16,67,220,32.7,27,62,292,44.0,23,48,104,34.1,18,41,061,27.6*76
$GPGSV,3,2,12,10,37,149,36.9,26,36,176,35.7,08,29,288,46.0,07,14,320,42.6*7E
$GPGSV,3,3,12,15,09,057,28.1,13,05,030,32.9,30,02,345,39.7,21,01,240,36.4*79
$GPRMC,000058.000,A,5138.7725,N,00636.4099,E,0.02,126.48,081221,,,A*6F
$GPRMC,000058.000,A,5138.7725,N,00636.4099,E,0.02,126.48,081221,,,A*6F
211208.log

$GPGGA,000059.000,5138.7725,N,00636.4099,E,1,10,0.96,22.3,M,47.4,M,,*55
$GPGSV,3,1,12,16,67,220,33.1,27,62,292,44.5,23,48,104,33.6,18,41,061,28.8*75
$GPGSV,3,2,12,10,37,149,37.2,26,36,176,36.8,08,29,288,46.0,07,14,320,41.7*7A
$GPGSV,3,3,12,15,09,057,28.2,13,05,030,32.9,30,02,345,40.3,21,01,240,36.3*77
$GPRMC,000059.000,A,5138.7725,N,00636.4099,E,0.00,126.48,081221,,,A*6C
$GPRMC,000059.000,A,5138.7725,N,00636.4099,E,0.00,126.48,081221,,,A*6C
211208.log

$GPGGA,000100.000,5138.7725,N,00636.4099,E,1,10,0.96,22.3,M,47.4,M,,*58
$GPGSV,3,1,12,16,67,220,33.4,27,62,292,44.0,23,48,104,33.4,18,41,061,28.3*7C
$GPGSV,3,2,12,10,37,149,38.1,26,36,176,36.1,08,29,288,44.0,07,14,320,40.7*7C
$GPGSV,3,3,12,15,09,057,28.7,13,05,030,32.7,30,02,345,39.9,21,01,240,36.7*7C
$GPRMC,000100.000,A,5138.7725,N,00636.4099,E,0.00,126.48,081221,,,A*61
$GPRMC,000100.000,A,5138.7725,N,00636.4099,E,0.00,126.48,081221,,,A*61
211208.log

$GPGGA,000101.000,5138.7725,N,00636.4099,E,1,10,0.96,22.3,M,47.4,M,,*59
$GPGSV,3,1,12,16,67,220,32.6,27,62,292,44.4,23,48,104,33.1,18,41,061,28.8*75
$GPGSV,3,2,12,10,37,149,36.9,26,36,176,36.6,08,29,288,44.3,07,14,320,41.2*7A
$GPGSV,3,3,12,15,09,057,26.8,13,05,030,32.8,30,02,345,39.6,21,01,240,36.7*7D
$GPRMC,000101.000,A,5138.7725,N,00636.4099,E,0.01,126.48,081221,,,A*61
$GPRMC,000101.000,A,5138.7725,N,00636.4099,E,0.01,126.48,081221,,,A*61
211208.log

$GPGGA,000102.000,5138.7725,N,00636.4099,E,1,10,0.96,22.3,M,47.4,M,,*5A
$GPGSV,3,1,12,16,67,220,33.3,27,62,292,43.0,23,48,104,33.9,18,41,061,28.1*73
$GPGSV,3,2,12,10,37,149,36.4,26,36,176,37.3,08,29,288,47.0,07,14,320,39.6*78
$GPGSV,3,3,12,15,09,057,27.3,13,05,030,33.3,30,02,345,40.6,21,01,240,36.9*7D
$GPRMC,000102.000,A,5138.7725,N,00636.4099,E,0.00,126.48,081221,,,A*63
$GPRMC,000102.000,A,5138.7725,N,00636.4099,E,0.00,126.48,081221,,,A*63
211208.log

$GPGGA,000103.000,5138.7725,N,00636.4099,E,1,10,0.96,22.3,M,47.4,M,,*5B
$GPGSV,3,1,12,16,67,220,34.0,27,62,292,44.2,23,48,104,33.1,18,41,061,29.5*7F
$GPGSV,3,2,12,10,37,149,36.8,26,36,176,37.9,08,29,288,45.1,07,14,320,40.6*73
$GPGSV,3,3,12,15,09,057,29.1,13,05,030,31.9,30,02,345,40.0,21,01,240,37.6*71
$GPRMC,000103.000,A,5138.7725,N,00636.4099,E,0.01,126.48,081221,,,A*63
$GPRMC,000103.000,A,5138.7725,N,00636.4099,E,0.01,126.48,081221,,,A*63
211208.log

$GPGGA,000104.000,5138.7725,N,00636.4099,E,1,10,0.96,22.3,M,47.4,M,,*5C
$GPGSV,3,1,12,16,67,220,34.2,27,62,292,43.8,23,48,104,32.7,18,41,061,29.3*71
$GPGSV,3,2,12,10,37,149,36.8,26,36,176,37.7,08,29,288,44.9,07,14,320,40.6*74
$GPGSV,3,3,12,15,09,057,29.2,13,05,030,32.2,30,02,345,40.2,21,01,240,36.8*77
$GPRMC,000104.000,A,5138.7725,N,00636.4099,E,0.01,126.48,081221,,,A*64
$GPRMC,000104.000,A,5138.7725,N,00636.4099,E,0.01,126.48,081221,,,A*64
211208.log

$GPGGA,000105.000,5138.7725,N,00636.4099,E,1,10,0.96,22.3,M,47.4,M,,*5D
$GPGSV,3,1,12,16,67,220,34.5,27,62,292,43.5,23,48,104,31.9,18,41,061,29.5*70
$GPGSV,3,2,12,10,37,149,37.8,26,36,176,38.4,08,29,288,46.2,07,14,320,40.7*71
$GPGSV,3,3,12,15,09,057,28.1,13,05,030,31.6,30,02,345,40.2,21,01,240,37.4*7F
$GPRMC,000105.000,A,5138.7725,N,00636.4099,E,0.02,126.48,081221,,,A*66
$GPRMC,000105.000,A,5138.7725,N,00636.4099,E,0.02,126.48,081221,,,A*66
211208.log

$GPGGA,000106.000,5138.7725,N,00636.4098,E,1,10,0.96,22.3,M,47.4,M,,*5F
$GPGSV,3,1,12,16,67,220,34.8,27,62,292,43.7,23,48,104,31.4,18,41,061,29.5*72
$GPGSV,3,2,12,10,37,149,37.4,26,36,176,38.4,08,29,288,47.3,07,15,320,42.4*7D
$GPGSV,3,3,12,15,09,057,30.1,13,05,030,33.1,30,02,345,40.2,21,01,240,37.4*73
$GPRMC,000106.000,A,5138.7725,N,00636.4098,E,0.02,126.48,081221,,,A*64
$GPRMC,000106.000,A,5138.7725,N,00636.4098,E,0.02,126.48,081221,,,A*64
211208.log

$GPGGA,000107.000,5138.7724,N,00636.4098,E,1,10,0.96,22.2,M,47.4,M,,*5E
$GPGSV,3,1,12,16,67,220,34.3,27,62,292,43.7,23,48,104,31.1,18,41,061,29.4*7D
$GPGSV,3,2,12,10,37,149,38.6,26,36,176,38.8,08,29,288,47.0,07,15,320,41.5*7D
$GPGSV,3,3,12,15,09,057,29.6,13,05,030,31.5,30,02,345,40.6,21,01,240,37.7*7D
$GPRMC,000107.000,A,5138.7724,N,00636.4098,E,0.02,126.48,081221,,,A*64
$GPRMC,000107.000,A,5138.7724,N,00636.4098,E,0.02,126.48,081221,,,A*64
211208.log

$GPGGA,000108.000,5138.7724,N,00636.4098,E,1,10,0.96,22.2,M,47.4,M,,*51
$GPGSV,3,1,12,16,67,220,34.1,27,62,292,42.7,23,48,104,31.3,18,41,061,29.3*7B
$GPGSV,3,2,12,10,37,149,38.7,26,36,176,38.0,08,29,288,44.7,07,15,320,42.0*76
$GPGSV,3,3,12,15,09,057,30.2,13,05,030,31.2,30,02,345,40.9,21,01,240,38.0*71
$GPRMC,000108.000,A,5138.7724,N,00636.4098,E,0.04,126.48,081221,,,A*6D
$GPRMC,000108.000,A,5138.7724,N,00636.4098,E,0.04,126.48,081221,,,A*6D
211208.log

$GPGGA,000109.000,5138.7724,N,00636.4097,E,1,10,0.96,22.2,M,47.4,M,,*5F
$GPGSV,3,1,12,16,67,220,33.6,27,62,292,42.8,23,48,104,31.3,18,41,061,29.5*72
$GPGSV,3,2,12,10,37,149,38.8,26,36,176,37.6,08,29,288,45.4,07,15,320,40.5*75
$GPGSV,3,3,12,15,09,057,29.2,13,05,030,32.1,30,02,345,40.9,21,01,240,37.7*71
$GPRMC,000109.000,A,5138.7724,N,00636.4097,E,0.02,126.48,081221,,,A*65
$GPRMC,000109.000,A,5138.7724,N,00636.4097,E,0.02,126.48,081221,,,A*65
211208.log

$GPGGA,000110.000,5138.7724,N,00636.4097,E,1,10,0.96,22.3,M,47.4,M,,*56
$GPGSV,3,1,12,16,67,220,33.5,27,62,292,42.7,23,48,104,31.2,18,41,061,29.8*72
$GPGSV,3,2,12,10,37,149,39.5,26,36,176,38.5,08,29,288,45.8,07,15,320,41.3*7E
$GPGSV,3,3,12,15,09,057,28.6,13,05,030,32.1,30,02,345,40.5,21,01,240,38.0*70
$GPRMC,000110.000,A,5138.7724,N,00636.4097,E,0.02,126.48,081221,,,A*6D
$GPRMC,000110.000,A,5138.7724,N,00636.4097,E,0.02,126.48,081221,,,A*6D
211208.log

$GPGGA,000111.000,5138.7724,N,00636.4097,E,1,10,0.96,22.3,M,47.4,M,,*57
$GPGSV,3,1,12,16,67,220,33.2,27,62,292,42.5,23,48,104,31.4,18,41,061,30.1*70
$GPGSV,3,2,12,10,37,149,39.0,26,36,176,38.6,08,29,288,45.1,07,15,320,42.3*72
$GPGSV,3,3,12,15,09,057,27.0,13,05,030,30.9,30,02,345,40.3,21,01,240,37.8*72
$GPRMC,000111.000,A,5138.7724,N,00636.4097,E,0.01,126.48,081221,,,A*6F
$GPRMC,000111.000,A,5138.7724,N,00636.4097,E,0.01,126.48,081221,,,A*6F
211208.log

$GPGGA,000112.000,5138.7724,N,00636.4097,E,1,10,0.96,22.3,M,47.4,M,,*54
$GPGSV,3,1,12,16,67,220,32.9,27,62,292,43.2,23,48,104,31.7,18,41,061,30.3*7D
$GPGSV,3,2,12,10,37,149,39.7,26,36,176,36.8,08,29,288,46.5,07,15,320,40.7*74
$GPGSV,3,3,12,15,09,057,26.2,13,05,029,31.4,30,02,345,40.4,21,01,240,37.9*73
$GPRMC,000112.000,A,5138.7724,N,00636.4097,E,0.01,126.48,081221,,,A*6C
$GPRMC,000112.000,A,5138.7724,N,00636.4097,E,0.01,126.48,081221,,,A*6C
211208.log

$GPGGA,000113.000,5138.7724,N,00636.4097,E,1,10,0.96,22.3,M,47.4,M,,*55
$GPGSV,3,1,12,16,67,220,32.9,27,62,292,42.7,23,48,104,32.0,18,41,061,30.1*7F
$GPGSV,3,2,12,10,37,149,39.2,26,36,176,37.4,08,29,288,46.2,07,15,320,39.7*75
$GPGSV,3,3,12,15,09,057,27.8,13,05,029,31.6,30,02,345,39.7,21,01,240,37.9*77
$GPRMC,000113.000,A,5138.7724,N,00636.4097,E,0.01,126.48,081221,,,A*6D
$GPRMC,000113.000,A,5138.7724,N,00636.4097,E,0.01,126.48,081221,,,A*6D
211208.log

$GPGGA,000114.000,5138.7724,N,00636.4097,E,1,10,0.96,22.3,M,47.4,M,,*52
$GPGSV,3,1,12,16,67,220,33.2,27,62,292,41.4,23,48,104,32.3,18,41,061,30.1*76
$GPGSV,3,2,12,10,37,149,39.1,26,36,176,36.6,08,29,288,45.6,07,15,320,41.0*7A
$GPGSV,3,3,12,15,09,057,27.7,13,05,029,30.7,30,02,345,40.0,21,01,240,38.1*76
$GPRMC,000114.000,A,5138.7724,N,00636.4097,E,0.02,126.48,081221,,,A*69
$GPRMC,000114.000,A,5138.7724,N,00636.4097,E,0.02,126.48,081221,,,A*69
211208.log

$GPGGA,000115.000,5138.7724,N,00636.4097,E,1,10,0.96,22.3,M,47.4,M,,*53
$GPGSV,3,1,12,16,67,219,33.5,27,62,292,42.9,23,48,104,32.3,18,41,061,30.0*74
$GPGSV,3,2,12,10,37,149,39.1,26,36,176,36.0,08,29,288,46.8,07,15,320,40.9*79
$GPGSV,3,3,12,15,09,057,27.0,13,05,029,30.1,30,02,345,40.2,21,01,240,38.0*74
$GPRMC,000115.000,A,5138.7724,N,00636.4097,E,0.02,126.48,081221,,,A*68
$GPRMC,000115.000,A,5138.7724,N,00636.4097,E,0.02,126.48,081221,,,A*68
211208.log

$GPGGA,000116.000,5138.7724,N,00636.4097,E,1,10,0.96,22.3,M,47.4,M,,*50
$GPGSV,3,1,12,16,67,219,33.9,27,62,292,42.3,23,48,104,32.2,18,41,061,30.2*71
$GPGSV,3,2,12,10,37,149,38.0,26,36,176,35.7,08,29,288,45.5,07,15,320,41.5*7E
$GPGSV,3,3,12,15,09,057,27.5,13,05,029,29.9,30,02,345,39.8,21,01,240,37.8*72
$GPRMC,000116.000,A,5138.7724,N,00636.4097,E,0.02,126.48,081221,,,A*6B
$GPRMC,000116.000,A,5138.7724,N,00636.4097,E,0.02,126.48,081221,,,A*6B
211208.log

$GPGGA,000117.000,5138.7724,N,00636.4097,E,1,10,0.96,22.3,M,47.4,M,,*51
$GPGSV,3,1,12,16,67,219,34.1,27,62,292,42.3,23,48,104,32.2,18,40,061,28.3*77
$GPGSV,3,2,12,10,37,149,38.8,26,36,176,34.9,08,29,288,46.1,07,15,320,40.0*7A
$GPGSV,3,3,12,15,09,057,26.4,13,05,029,28.1,30,02,345,39.8,21,01,240,38.1*7D
$GPRMC,000117.000,A,5138.7724,N,00636.4097,E,0.02,126.48,081221,,,A*6A
$GPRMC,000117.000,A,5138.7724,N,00636.4097,E,0.02,126.48,081221,,,A*6A
211208.log

[DEBUG] filename (battery): 211208.bat
$GPGGA,000118.000,5138.7725,N,00636.4097,E,1,10,0.96,22.4,M,47.4,M,,*58
$GPGSV,3,1,12,16,67,219,34.0,27,62,292,41.4,23,48,104,32.1,18,40,061,29.7*74
$GPGSV,3,2,12,10,37,149,38.7,26,36,176,35.3,08,29,288,46.1,07,15,320,41.1*7E
$GPGSV,3,3,12,15,09,057,26.9,13,05,029,28.0,30,02,345,39.5,21,01,240,38.2*7F
$GPRMC,000118.000,A,5138.7725,N,00636.4097,E,0.01,126.48,081221,,,A*67
$GPRMC,000118.000,A,5138.7725,N,00636.4097,E,0.01,126.48,081221,,,A*67
211208.log

$GPGGA,000119.000,5138.7724,N,00636.4096,E,1,10,0.96,22.4,M,47.4,M,,*59
$GPGSV,3,1,12,16,67,219,33.8,27,62,292,42.0,23,48,104,32.1,18,40,061,29.4*7F
$GPGSV,3,2,12,10,37,149,37.7,26,36,176,34.6,08,29,288,44.8,07,15,320,41.5*7A
$GPGSV,3,3,12,15,09,057,25.7,13,05,029,28.6,30,02,345,39.5,21,01,240,38.5*73
$GPRMC,000119.000,A,5138.7724,N,00636.4096,E,0.02,126.48,081221,,,A*65
$GPRMC,000119.000,A,5138.7724,N,00636.4096,E,0.02,126.48,081221,,,A*65
211208.log

$GPGGA,000120.000,5138.7725,N,00636.4097,E,1,10,0.96,22.4,M,47.4,M,,*53
$GPGSV,3,1,12,16,67,219,33.4,27,62,292,42.5,23,48,104,32.2,18,40,061,29.0*71
$GPGSV,3,2,12,10,37,149,38.3,26,36,176,34.1,08,29,288,45.5,07,15,320,40.9*77
$GPGSV,3,3,12,15,09,057,24.9,13,05,029,28.8,30,02,345,39.1,21,01,240,38.0*73
$GPRMC,000120.000,A,5138.7725,N,00636.4097,E,0.02,126.48,081221,,,A*6F
$GPRMC,000120.000,A,5138.7725,N,00636.4097,E,0.02,126.48,081221,,,A*6F
211208.log

$GPGGA,000121.000,5138.7725,N,00636.4097,E,1,10,0.96,22.4,M,47.4,M,,*52
$GPGSV,3,1,12,16,67,219,33.7,27,62,292,40.3,23,48,104,32.5,18,40,061,26.3*7D
$GPGSV,3,2,12,10,37,149,38.8,26,36,176,33.4,08,29,288,44.8,07,15,320,41.8*72
$GPGSV,3,3,12,15,09,057,23.8,13,05,029,29.3,30,02,345,39.0,21,01,240,37.8*79
$GPRMC,000121.000,A,5138.7725,N,00636.4097,E,0.01,126.48,081221,,,A*6D
$GPRMC,000121.000,A,5138.7725,N,00636.4097,E,0.01,126.48,081221,,,A*6D
211208.log

$GPGGA,000122.000,5138.7725,N,00636.4097,E,1,10,0.96,22.4,M,47.4,M,,*51
$GPGSV,3,1,12,16,67,219,32.9,27,62,292,41.0,23,49,103,32.7,18,40,061,24.2*77
$GPGSV,3,2,12,10,37,149,38.7,26,36,176,35.7,08,29,288,45.3,07,15,320,40.1*7A
$GPGSV,3,3,12,15,09,057,25.2,13,05,029,30.1,30,02,345,39.3,21,01,240,37.8*7C
$GPRMC,000122.000,A,5138.7725,N,00636.4097,E,0.01,126.48,081221,,,A*6E
$GPRMC,000122.000,A,5138.7725,N,00636.4097,E,0.01,126.48,081221,,,A*6E
211208.log

$GPGGA,000123.000,5138.7725,N,00636.4097,E,1,10,0.96,22.4,M,47.4,M,,*50
$GPGSV,3,1,12,16,67,219,32.5,27,62,292,41.8,23,49,103,32.9,18,40,061,27.0*7C
$GPGSV,3,2,12,10,37,149,39.2,26,36,176,34.8,08,29,288,44.6,07,15,320,40.7*72
$GPGSV,3,3,12,15,09,057,25.7,13,05,029,30.8,30,02,345,39.1,21,01,240,37.0*7A
$GPRMC,000123.000,A,5138.7725,N,00636.4097,E,0.01,126.48,081221,,,A*6F
$GPRMC,000123.000,A,5138.7725,N,00636.4097,E,0.01,126.48,081221,,,A*6F
211208.log

$GPGGA,000124.000,5138.7725,N,00636.4097,E,1,10,0.96,22.4,M,47.4,M,,*57
$GPGSV,3,1,12,16,67,219,32.7,27,62,292,41.5,23,49,103,33.2,18,40,061,25.9*72
$GPGSV,3,2,12,10,37,149,39.4,26,36,176,37.3,08,29,288,43.3,07,15,320,41.0*78
$GPGSV,3,3,12,15,09,057,26.7,13,05,029,31.3,30,02,345,38.9,21,01,240,37.0*7A
$GPRMC,000124.000,A,5138.7725,N,00636.4097,E,0.01,126.48,081221,,,A*68
$GPRMC,000124.000,A,5138.7725,N,00636.4097,E,0.01,126.48,081221,,,A*68
211208.log

$GPGGA,000125.000,5138.7725,N,00636.4097,E,1,10,0.96,22.4,M,47.4,M,,*56
$GPGSV,3,1,12,16,67,219,32.7,27,62,292,42.1,23,49,103,33.3,18,40,061,25.2*7F
$GPGSV,3,2,12,10,37,149,39.7,26,35,176,35.5,08,29,288,43.6,07,15,320,41.0*79
$GPGSV,3,3,12,15,09,057,26.6,13,05,029,31.9,30,02,345,38.7,21,01,240,37.6*79
$GPRMC,000125.000,A,5138.7725,N,00636.4097,E,0.01,126.48,081221,,,A*69
$GPRMC,000125.000,A,5138.7725,N,00636.4097,E,0.01,126.48,081221,,,A*69
211208.log

$GPGGA,000126.000,5138.7725,N,00636.4097,E,1,10,0.96,22.4,M,47.4,M,,*55
$GPGSV,3,1,12,16,67,219,32.7,27,62,292,41.5,23,49,103,33.3,18,40,061,25.9*73
$GPGSV,3,2,12,10,37,149,38.3,26,35,176,37.7,08,29,288,42.3,07,15,320,40.4*7D
$GPGSV,3,3,12,15,09,057,26.2,13,05,029,32.7,30,02,345,38.6,21,01,240,37.0*77
$GPRMC,000126.000,A,5138.7725,N,00636.4097,E,0.00,126.48,081221,,,A*6B
$GPRMC,000126.000,A,5138.7725,N,00636.4097,E,0.00,126.48,081221,,,A*6B
211208.log

$GPGGA,000127.000,5138.7726,N,00636.4097,E,1,9,0.99,22.4,M,47.4,M,,*60
$GPGSV,3,1,12,16,67,219,32.9,27,62,292,42.2,23,49,103,33.5,18,40,061,27.1*75
$GPGSV,3,2,12,10,37,149,39.2,26,35,176,36.2,08,29,288,43.2,07,15,320,41.3*7F
$GPGSV,3,3,12,15,09,057,,13,05,029,33.1,30,02,345,38.5,21,01,240,37.3*68
$GPRMC,000127.000,A,5138.7726,N,00636.4097,E,0.01,126.48,081221,,,A*68
$GPRMC,000127.000,A,5138.7726,N,00636.4097,E,0.01,126.48,081221,,,A*68
211208.log

$GPGGA,000128.000,5138.7726,N,00636.4096,E,1,10,0.96,22.5,M,47.4,M,,*58
$GPGSV,3,1,12,16,67,219,32.7,27,62,292,42.5,23,49,103,33.5,18,40,061,23.6*7F
$GPGSV,3,2,12,10,37,149,38.6,26,35,176,37.4,08,29,288,41.9,07,15,320,40.8*7E
$GPGSV,3,3,12,15,09,057,29.0,13,05,029,33.6,30,02,345,38.9,21,01,240,37.5*70
$GPRMC,000128.000,A,5138.7726,N,00636.4096,E,0.00,126.48,081221,,,A*67
$GPRMC,000128.000,A,5138.7726,N,00636.4096,E,0.00,126.48,081221,,,A*67
211208.log

$GPGGA,000129.000,5138.7726,N,00636.4095,E,1,10,0.96,22.5,M,47.4,M,,*5A
$GPGSV,3,1,12,16,67,219,32.8,27,62,292,42.6,23,49,103,33.7,18,40,061,28.2*7E
$GPGSV,3,2,12,10,37,149,38.3,26,35,176,37.0,08,29,288,43.5,07,15,320,42.0*7B
$GPGSV,3,3,12,15,09,057,28.4,13,05,029,34.1,30,02,344,39.2,21,01,240,37.5*7E
$GPRMC,000129.000,A,5138.7726,N,00636.4095,E,0.01,126.48,081221,,,A*64
$GPRMC,000129.000,A,5138.7726,N,00636.4095,E,0.01,126.48,081221,,,A*64
211208.log

$GPGGA,000130.000,5138.7727,N,00636.4095,E,1,10,0.96,22.5,M,47.4,M,,*53
$GPGSV,3,1,12,16,67,219,32.7,27,62,292,43.1,23,49,103,33.6,18,40,061,27.8*73
$GPGSV,3,2,12,10,37,149,39.5,26,35,176,37.4,08,29,288,43.2,07,15,320,41.5*79
$GPGSV,3,3,12,15,09,057,29.3,13,05,029,34.4,30,02,344,39.6,21,01,240,37.8*74
$GPRMC,000130.000,A,5138.7727,N,00636.4095,E,0.01,126.48,081221,,,A*6D
$GPRMC,000130.000,A,5138.7727,N,00636.4095,E,0.01,126.48,081221,,,A*6D
211208.log

$GPGGA,000131.000,5138.7727,N,00636.4095,E,1,10,0.96,22.5,M,47.4,M,,*52
$GPGSV,3,1,12,16,67,219,32.6,27,62,292,42.4,23,49,103,33.6,18,40,061,27.1*7F
$GPGSV,3,2,12,10,37,149,37.6,26,35,176,37.5,08,29,288,42.8,07,15,320,40.7*7D
$GPGSV,3,3,12,15,09,057,29.6,13,05,029,34.5,30,02,344,40.0,21,01,240,37.5*75
$GPRMC,000131.000,A,5138.7727,N,00636.4095,E,0.00,126.48,081221,,,A*6D
$GPRMC,000131.000,A,5138.7727,N,00636.4095,E,0.00,126.48,081221,,,A*6D
211208.log

$GPGGA,000132.000,5138.7727,N,00636.4095,E,1,10,0.96,22.5,M,47.4,M,,*51
$GPGSV,3,1,12,16,67,219,32.4,27,62,292,43.3,23,49,103,33.6,18,40,061,26.0*7B
$GPGSV,3,2,12,10,37,149,38.0,26,35,176,37.9,08,29,288,40.2,07,15,320,41.3*75
$GPGSV,3,3,12,15,09,057,28.7,13,05,029,34.5,30,02,344,40.0,21,01,240,37.2*72
$GPRMC,000132.000,A,5138.7727,N,00636.4095,E,0.00,126.48,081221,,,A*6E
$GPRMC,000132.000,A,5138.7727,N,00636.4095,E,0.00,126.48,081221,,,A*6E
211208.log

$GPGGA,000133.000,5138.7727,N,00636.4095,E,1,10,0.96,22.5,M,47.4,M,,*50
$GPGSV,3,1,12,16,67,219,32.3,27,62,292,42.4,23,49,103,33.7,18,40,061,25.0*78
$GPGSV,3,2,12,10,37,149,36.9,26,35,176,37.3,08,29,288,40.9,07,15,320,42.1*72
$GPGSV,3,3,12,15,09,057,28.3,13,05,029,34.7,30,02,344,40.0,21,01,240,37.9*7F
$GPRMC,000133.000,A,5138.7727,N,00636.4095,E,0.00,126.48,081221,,,A*6F
$GPRMC,000133.000,A,5138.7727,N,00636.4095,E,0.00,126.48,081221,,,A*6F
211208.log

$GPGGA,000134.000,5138.7727,N,00636.4095,E,1,10,0.96,22.5,M,47.4,M,,*57
$GPGSV,3,1,12,16,67,219,32.3,27,62,292,41.8,23,49,103,33.8,18,40,061,20.9*74
$GPGSV,3,2,12,10,37,149,37.2,26,35,176,37.9,08,29,288,40.1,07,15,320,42.4*7F
$GPGSV,3,3,12,15,09,057,28.4,13,05,029,34.7,30,02,344,39.6,21,01,240,38.0*76
$GPRMC,000134.000,A,5138.7727,N,00636.4095,E,0.01,126.48,081221,,,A*69
$GPRMC,000134.000,A,5138.7727,N,00636.4095,E,0.01,126.48,081221,,,A*69
211208.log

$GPGGA,000135.000,5138.7727,N,00636.4094,E,1,10,0.96,22.5,M,47.4,M,,*57
$GPGSV,3,1,12,16,67,219,32.6,27,62,292,43.9,23,49,103,34.0,18,40,061,23.7*70
$GPGSV,3,2,12,10,37,149,37.3,26,35,176,37.3,08,29,288,42.9,07,15,320,42.0*7A
$GPGSV,3,3,12,15,09,057,28.0,13,05,029,34.5,30,02,344,39.4,21,01,240,38.2*70
$GPRMC,000135.000,A,5138.7727,N,00636.4094,E,0.01,126.48,081221,,,A*69
$GPRMC,000135.000,A,5138.7727,N,00636.4094,E,0.01,126.48,081221,,,A*69
211208.log

$GPGGA,000136.000,5138.7727,N,00636.4094,E,1,10,0.96,22.4,M,47.4,M,,*55
$GPGSV,3,1,12,16,67,219,32.2,27,62,292,43.9,23,49,103,34.4,18,40,061,24.7*77
$GPGSV,3,2,12,10,37,149,38.2,26,35,176,35.8,08,29,288,41.8,07,15,320,42.6*79
$GPGSV,3,3,12,15,09,057,25.3,13,05,029,34.2,30,02,344,39.5,21,01,240,38.0*7A
$GPRMC,000136.000,A,5138.7727,N,00636.4094,E,0.02,126.48,081221,,,A*69
$GPRMC,000136.000,A,5138.7727,N,00636.4094,E,0.02,126.48,081221,,,A*69
211208.log

$GPGGA,000137.000,5138.7727,N,00636.4093,E,1,10,0.96,22.4,M,47.4,M,,*53
$GPGSV,3,1,12,16,67,219,33.2,27,62,292,44.5,23,49,103,34.6,18,40,061,22.9*77
$GPGSV,3,2,12,10,37,149,36.3,26,35,176,36.4,08,29,288,41.5,07,15,320,42.8*7A
$GPGSV,3,3,12,15,09,057,29.0,13,05,029,33.8,30,02,344,39.5,21,01,240,38.4*7C
$GPRMC,000137.000,A,5138.7727,N,00636.4093,E,0.03,126.48,081221,,,A*6E
$GPRMC,000137.000,A,5138.7727,N,00636.4093,E,0.03,126.48,081221,,,A*6E
211208.log

$GPGGA,000138.000,5138.7726,N,00636.4093,E,1,10,0.96,22.4,M,47.4,M,,*5D
$GPGSV,3,1,12,16,67,219,30.5,27,62,292,42.5,23,49,103,34.8,18,40,061,22.9*7B
$GPGSV,3,2,12,10,37,149,36.7,26,35,176,35.9,08,29,288,41.3,07,15,320,42.4*7A
$GPGSV,3,3,12,15,09,057,26.5,13,05,029,33.5,30,02,344,39.1,21,01,240,38.1*7A
$GPRMC,000138.000,A,5138.7726,N,00636.4093,E,0.02,126.48,081221,,,A*61
$GPRMC,000138.000,A,5138.7726,N,00636.4093,E,0.02,126.48,081221,,,A*61
211208.log

$GPGGA,000139.000,5138.7726,N,00636.4092,E,1,9,0.99,22.4,M,47.4,M,,*6A
$GPGSV,3,1,12,16,67,219,31.7,27,62,292,42.6,23,49,103,34.8,18,40,061,27.7*70
$GPGSV,3,2,12,10,37,149,37.9,26,35,176,34.6,08,29,288,39.1,07,15,320,43.1*72
$GPGSV,3,3,12,15,09,057,,13,05,029,33.2,30,02,344,40.0,21,01,240,38.8*64
$GPRMC,000139.000,A,5138.7726,N,00636.4092,E,0.02,126.48,081221,,,A*61
$GPRMC,000139.000,A,5138.7726,N,00636.4092,E,0.02,126.48,081221,,,A*61
211208.log

$GPGGA,000140.000,5138.7726,N,00636.4092,E,1,10,0.96,22.4,M,47.4,M,,*53
$GPGSV,3,1,12,16,67,219,32.8,27,62,292,43.6,23,49,103,34.2,18,40,061,24.6*75
$GPGSV,3,2,12,10,37,149,38.3,26,35,176,34.8,08,29,288,39.0,07,15,320,42.7*7F
$GPGSV,3,3,12,15,09,057,22.4,13,05,029,32.9,30,02,344,39.6,21,01,240,38.2*76
$GPRMC,000140.000,A,5138.7726,N,00636.4092,E,0.02,126.48,081221,,,A*6F
$GPRMC,000140.000,A,5138.7726,N,00636.4092,E,0.02,126.48,081221,,,A*6F
211208.log

$GPGGA,000141.000,5138.7726,N,00636.4092,E,1,10,0.96,22.3,M,47.4,M,,*55
$GPGSV,3,1,12,16,67,219,32.7,27,62,292,42.9,23,49,103,33.9,18,40,061,27.3*7E
$GPGSV,3,2,12,10,37,149,37.5,26,35,176,34.7,08,29,288,40.3,07,15,320,43.2*70
$GPGSV,3,3,12,15,09,057,20.2,13,05,029,32.6,30,02,344,39.4,21,01,240,38.7*7A
$GPRMC,000141.000,A,5138.7726,N,00636.4092,E,0.01,126.48,081221,,,A*6D
$GPRMC,000141.000,A,5138.7726,N,00636.4092,E,0.01,126.48,081221,,,A*6D
211208.log

$GPGGA,000142.000,5138.7726,N,00636.4092,E,1,10,0.96,22.3,M,47.4,M,,*56
$GPGSV,3,1,12,16,67,219,31.4,27,62,292,44.5,23,49,103,33.3,18,40,061,26.7*7B
$GPGSV,3,2,12,10,37,149,37.6,26,35,176,33.1,08,29,288,43.5,07,15,320,42.8*7C
$GPGSV,3,3,12,15,09,057,24.5,13,05,029,30.8,30,02,344,39.5,21,01,240,38.3*70
$GPRMC,000142.000,A,5138.7726,N,00636.4092,E,0.01,126.48,081221,,,A*6E
$GPRMC,000142.000,A,5138.7726,N,00636.4092,E,0.01,126.48,081221,,,A*6E
211208.log

$GPGGA,000143.000,5138.7725,N,00636.4092,E,1,10,0.96,22.3,M,47.4,M,,*54
$GPGSV,3,1,12,16,67,219,33.3,27,62,292,43.6,23,49,103,32.8,18,40,061,27.6*70
$GPGSV,3,2,12,10,37,149,37.9,26,35,176,33.2,08,29,288,42.7,07,15,320,41.3*7B
$GPGSV,3,3,12,15,09,057,23.3,13,05,029,30.9,30,02,344,39.5,21,01,240,38.5*76
$GPRMC,000143.000,A,5138.7725,N,00636.4092,E,0.02,126.48,081221,,,A*6F
$GPRMC,000143.000,A,5138.7725,N,00636.4092,E,0.02,126.48,081221,,,A*6F
211208.log

$GPGGA,000144.000,5138.7726,N,00636.4093,E,1,10,0.96,22.3,M,47.4,M,,*51
$GPGSV,3,1,12,16,67,219,29.1,27,62,292,42.5,23,49,103,31.6,18,40,061,27.9*79
$GPGSV,3,2,12,10,37,149,37.8,26,35,176,32.5,08,29,288,43.2,07,15,320,41.3*78
$GPGSV,3,3,12,15,09,057,25.9,13,05,029,30.9,30,02,344,40.2,21,01,240,37.9*70
$GPRMC,000144.000,A,5138.7726,N,00636.4093,E,0.02,126.48,081221,,,A*6A
$GPRMC,000144.000,A,5138.7726,N,00636.4093,E,0.02,126.48,081221,,,A*6A
211208.log

$GPGGA,000145.000,5138.7725,N,00636.4093,E,1,10,0.96,22.3,M,47.4,M,,*53
$GPGSV,3,1,12,16,67,219,33.0,27,62,292,43.9,23,49,103,33.2,18,40,061,28.0*7E
$GPGSV,3,2,12,10,37,149,36.5,26,35,176,33.4,08,29,288,44.4,07,15,320,42.1*74
$GPGSV,3,3,12,15,09,057,25.4,13,05,029,31.0,30,02,344,40.3,21,01,240,37.9*74
$GPRMC,000145.000,A,5138.7725,N,00636.4093,E,0.02,126.48,081221,,,A*68
$GPRMC,000145.000,A,5138.7725,N,00636.4093,E,0.02,126.48,081221,,,A*68
211208.log

$GPGGA,000146.000,5138.7725,N,00636.4094,E,1,10,0.96,22.3,M,47.4,M,,*57
$GPGSV,3,1,12,16,67,219,31.9,27,62,292,42.5,23,49,103,33.7,18,40,061,28.3*7E
$GPGSV,3,2,12,10,37,149,37.0,26,35,176,33.7,08,29,288,43.2,07,15,320,41.3*73
$GPGSV,3,3,12,15,09,057,25.3,13,05,029,31.1,30,02,344,40.3,21,01,240,38.1*75
$GPRMC,000146.000,A,5138.7725,N,00636.4094,E,0.02,126.48,081221,,,A*6C
$GPRMC,000146.000,A,5138.7725,N,00636.4094,E,0.02,126.48,081221,,,A*6C
211208.log

$GPGGA,000147.000,5138.7725,N,00636.4094,E,1,10,0.96,22.2,M,47.4,M,,*57
$GPGSV,3,1,12,16,67,219,32.6,27,62,292,42.1,23,49,103,32.9,18,40,061,28.5*7F
$GPGSV,3,2,12,10,37,149,36.9,26,35,176,34.2,08,29,288,43.8,07,15,320,42.8*7B
$GPGSV,3,3,12,15,09,057,25.2,13,05,029,31.1,30,02,344,40.1,21,01,240,37.7*7F
$GPRMC,000147.000,A,5138.7725,N,00636.4094,E,0.01,126.48,081221,,,A*6E
$GPRMC,000147.000,A,5138.7725,N,00636.4094,E,0.01,126.48,081221,,,A*6E
211208.log

$GPGGA,000148.000,5138.7724,N,00636.4094,E,1,10,0.96,22.3,M,47.4,M,,*58
$GPGSV,3,1,12,16,67,219,32.8,27,62,292,42.3,23,49,103,33.2,18,40,061,29.0*7D
$GPGSV,3,2,12,10,37,149,38.1,26,35,176,34.6,08,29,288,43.1,07,15,320,41.7*7C
$GPGSV,3,3,12,15,09,057,26.4,13,05,029,31.3,30,02,344,40.4,21,01,240,37.8*72
$GPRMC,000148.000,A,5138.7724,N,00636.4094,E,0.01,126.48,081221,,,A*60
$GPRMC,000148.000,A,5138.7724,N,00636.4094,E,0.01,126.48,081221,,,A*60
211208.log

$GPGGA,000149.000,5138.7724,N,00636.4094,E,1,10,0.96,22.3,M,47.4,M,,*59
$GPGSV,3,1,12,16,67,219,32.9,27,62,292,42.8,23,49,103,33.2,18,40,061,29.0*77
$GPGSV,3,2,12,10,37,149,37.4,26,35,176,35.2,08,29,288,44.0,07,15,320,42.3*72
$GPGSV,3,3,12,15,09,056,27.1,13,05,029,31.4,30,02,344,40.2,21,01,240,37.4*7A
$GPRMC,000149.000,A,5138.7724,N,00636.4094,E,0.01,126.48,081221,,,A*61
$GPRMC,000149.000,A,5138.7724,N,00636.4094,E,0.01,126.48,081221,,,A*61
211208.log

$GPGGA,000150.000,5138.7724,N,00636.4094,E,1,10,0.96,22.3,M,47.4,M,,*51
$GPGSV,3,1,12,16,67,219,33.1,27,62,292,42.2,23,49,103,33.1,18,40,061,29.1*76
$GPGSV,3,2,12,10,37,149,37.7,26,35,176,36.0,08,29,288,44.3,07,15,320,41.2*71
$GPGSV,3,3,12,15,09,056,27.2,13,05,029,31.6,30,02,344,40.4,21,01,240,37.2*7B
$GPRMC,000150.000,A,5138.7724,N,00636.4094,E,0.01,126.48,081221,,,A*69
$GPRMC,000150.000,A,5138.7724,N,00636.4094,E,0.01,126.48,081221,,,A*69
211208.log

$GPGGA,000151.000,5138.7724,N,00636.4094,E,1,10,0.96,22.3,M,47.4,M,,*50
$GPGSV,3,1,12,16,67,219,33.0,27,62,292,43.2,23,49,103,32.9,18,40,061,29.4*7A
$GPGSV,3,2,12,10,37,149,38.9,26,35,176,36.5,08,29,288,45.4,07,15,320,42.1*73
$GPGSV,3,3,12,15,09,056,27.7,13,05,029,31.9,30,02,344,41.2,21,01,240,37.6*72
$GPRMC,000151.000,A,5138.7724,N,00636.4094,E,0.03,126.48,081221,,,A*6A
$GPRMC,000151.000,A,5138.7724,N,00636.4094,E,0.03,126.48,081221,,,A*6A
211208.log

$GPGGA,000152.000,5138.7724,N,00636.4094,E,1,10,0.96,22.3,M,47.4,M,,*53
$GPGSV,3,1,12,16,67,219,33.4,27,62,292,43.0,23,49,103,33.1,18,40,061,30.2*7B
$GPGSV,3,2,12,10,37,149,39.4,26,35,176,36.9,08,29,288,42.6,07,15,320,42.4*73
$GPGSV,3,3,12,15,09,056,27.0,13,05,029,32.5,30,02,344,41.2,21,01,240,36.7*7A
$GPRMC,000152.000,A,5138.7724,N,00636.4094,E,0.02,126.48,081221,,,A*68
$GPRMC,000152.000,A,5138.7724,N,00636.4094,E,0.02,126.48,081221,,,A*68
211208.log

$GPGGA,000153.000,5138.7724,N,00636.4094,E,1,10,0.96,22.3,M,47.4,M,,*52
$GPGSV,3,1,12,16,67,219,33.1,27,62,292,42.0,23,49,103,32.1,18,40,061,30.2*7E
$GPGSV,3,2,12,10,37,149,38.9,26,35,176,37.0,08,29,288,45.2,07,15,320,41.9*7A
$GPGSV,3,3,12,15,09,056,27.6,13,05,029,32.8,30,02,344,41.5,21,01,240,36.2*73
$GPRMC,000153.000,A,5138.7724,N,00636.4094,E,0.01,126.48,081221,,,A*6A
$GPRMC,000153.000,A,5138.7724,N,00636.4094,E,0.01,126.48,081221,,,A*6A
211208.log

$GPGGA,000154.000,5138.7724,N,00636.4094,E,1,10,0.96,22.3,M,47.4,M,,*55
$GPGSV,3,1,12,16,67,219,32.9,27,62,292,42.1,23,49,103,33.6,18,40,061,30.2*70
$GPGSV,3,2,12,10,37,149,38.3,26,35,176,37.5,08,29,288,45.7,07,15,320,42.9*73
$GPGSV,3,3,12,15,09,056,27.7,13,05,029,33.1,30,02,344,42.1,21,01,240,37.0*7E
$GPRMC,000154.000,A,5138.7724,N,00636.4094,E,0.02,126.48,081221,,,A*6E
$GPRMC,000154.000,A,5138.7724,N,00636.4094,E,0.02,126.48,081221,,,A*6E
211208.log

$GPGGA,000155.000,5138.7724,N,00636.4094,E,1,10,0.96,22.3,M,47.4,M,,*54
$GPGSV,3,1,12,16,67,219,33.1,27,62,292,43.9,23,49,103,33.2,18,40,061,30.3*75
$GPGSV,3,2,12,10,37,149,38.1,26,35,176,37.9,08,29,288,45.1,07,15,320,41.6*77
$GPGSV,3,3,12,15,09,056,27.6,13,05,029,33.2,21,02,240,37.2,30,02,344,41.7*78
$GPRMC,000155.000,A,5138.7724,N,00636.4094,E,0.00,126.48,081221,,,A*6D
$GPRMC,000155.000,A,5138.7724,N,00636.4094,E,0.00,126.48,081221,,,A*6D
211208.log

$GPGGA,000156.000,5138.7724,N,00636.4094,E,1,10,0.96,22.3,M,47.4,M,,*57
$GPGSV,3,1,12,16,67,219,32.9,27,62,292,44.5,23,49,103,31.8,18,40,061,29.9*7D
$GPGSV,3,2,12,10,37,149,37.5,26,35,176,38.2,08,29,288,44.1,07,15,320,42.8*74
$GPGSV,3,3,12,15,09,056,26.4,13,05,029,33.4,21,02,240,38.0,30,02,344,41.9*7E
$GPRMC,000156.000,A,5138.7724,N,00636.4094,E,0.01,126.48,081221,,,A*6F
$GPRMC,000156.000,A,5138.7724,N,00636.4094,E,0.01,126.48,081221,,,A*6F
211208.log

$GPGGA,000157.000,5138.7724,N,00636.4094,E,1,10,0.96,22.3,M,47.4,M,,*56
$GPGSV,3,1,12,16,67,219,33.0,27,62,292,43.0,23,49,103,30.4,18,40,061,30.2*79
$GPGSV,3,2,12,10,37,149,37.9,26,35,176,38.4,08,29,288,46.5,07,15,320,42.7*77
$GPGSV,3,3,12,15,09,056,24.4,13,05,029,33.4,21,02,240,37.0,30,02,344,41.8*72
$GPRMC,000157.000,A,5138.7724,N,00636.4094,E,0.03,126.48,081221,,,A*6C
$GPRMC,000157.000,A,5138.7724,N,00636.4094,E,0.03,126.48,081221,,,A*6C
211208.log

$GPGGA,000158.000,5138.7724,N,00636.4094,E,1,10,0.96,22.3,M,47.4,M,,*59
$GPGSV,3,1,12,16,67,219,33.1,27,62,292,42.3,23,49,103,30.8,18,40,061,30.6*72
$GPGSV,3,2,12,10,37,149,38.2,26,35,176,38.5,08,29,288,45.3,07,15,320,41.0*73
$GPGSV,3,3,12,15,09,056,25.6,13,05,029,33.5,21,02,240,37.8,30,02,344,42.0*73
$GPRMC,000158.000,A,5138.7724,N,00636.4094,E,0.01,126.48,081221,,,A*61
$GPRMC,000158.000,A,5138.7724,N,00636.4094,E,0.01,126.48,081221,,,A*61
211208.log

$GPGGA,000159.000,5138.7724,N,00636.4094,E,1,10,0.96,22.3,M,47.4,M,,*58
$GPGSV,3,1,12,16,67,219,30.7,27,62,292,42.6,23,49,103,28.6,18,40,061,30.9*7A
$GPGSV,3,2,12,10,37,149,36.6,26,35,176,38.9,08,29,288,46.1,07,15,320,41.4*70
$GPGSV,3,3,12,15,09,056,25.2,13,05,029,33.4,21,02,240,37.7,30,02,344,42.3*7A
$GPRMC,000159.000,A,5138.7724,N,00636.4094,E,0.03,126.48,081221,,,A*62
$GPRMC,000159.000,A,5138.7724,N,00636.4094,E,0.03,126.48,081221,,,A*62
211208.log

$GPGGA,000200.000,5138.7724,N,00636.4094,E,1,10,0.96,22.3,M,47.4,M,,*57
$GPGSV,3,1,12,16,67,219,30.4,27,62,292,42.2,23,49,103,27.7,18,40,061,31.3*78
$GPGSV,3,2,12,10,37,149,38.3,26,35,176,39.3,08,29,288,46.8,07,15,320,41.7*7A
$GPGSV,3,3,12,15,09,056,25.3,13,05,029,33.5,21,02,240,38.0,30,02,344,42.3*72
$GPRMC,000200.000,A,5138.7724,N,00636.4094,E,0.01,126.48,081221,,,A*6F
$GPRMC,000200.000,A,5138.7724,N,00636.4094,E,0.01,126.48,081221,,,A*6F
211208.log

$GPGGA,000201.000,5138.7724,N,00636.4094,E,1,10,0.96,22.3,M,47.4,M,,*56
$GPGSV,3,1,12,16,67,219,30.5,27,62,292,44.9,23,49,103,29.5,18,40,061,31.5*7E
$GPGSV,3,2,12,10,37,149,37.2,26,35,176,39.5,08,29,288,46.2,07,15,320,40.5*7B
$GPGSV,3,3,12,15,09,056,24.3,13,05,029,33.6,21,02,240,39.1,30,02,344,42.5*76
$GPRMC,000201.000,A,5138.7724,N,00636.4094,E,0.01,126.48,081221,,,A*6E
$GPRMC,000201.000,A,5138.7724,N,00636.4094,E,0.01,126.48,081221,,,A*6E
211208.log

$GPGGA,000202.000,5138.7724,N,00636.4094,E,1,10,0.96,22.3,M,47.4,M,,*55
$GPGSV,3,1,12,16,67,219,28.4,27,62,292,43.6,23,49,103,30.2,18,40,061,31.9*7D
$GPGSV,3,2,12,10,37,149,38.2,26,35,176,39.5,08,29,288,46.2,07,15,320,39.9*76
$GPGSV,3,3,12,15,09,056,22.1,13,05,029,33.5,21,02,240,39.0,30,02,344,42.3*76
$GPRMC,000202.000,A,5138.7724,N,00636.4094,E,0.01,126.48,081221,,,A*6D
$GPRMC,000202.000,A,5138.7724,N,00636.4094,E,0.01,126.48,081221,,,A*6D
211208.log

$GPGGA,000203.000,5138.7724,N,00636.4094,E,1,10,0.96,22.3,M,47.4,M,,*54
$GPGSV,3,1,12,16,67,219,28.5,27,62,292,43.6,23,49,103,28.7,18,40,061,32.4*7E
$GPGSV,3,2,12,10,37,149,39.1,26,35,176,39.4,08,29,288,47.0,07,15,320,41.7*77
$GPGSV,3,3,12,15,09,056,22.5,13,05,029,33.5,21,02,240,38.4,30,02,344,42.6*72
$GPRMC,000203.000,A,5138.7724,N,00636.4094,E,0.01,126.48,081221,,,A*6C
$GPRMC,000203.000,A,5138.7724,N,00636.4094,E,0.01,126.48,081221,,,A*6C
211208.log

$GPGGA,000204.000,5138.7724,N,00636.4094,E,1,10,0.96,22.3,M,47.4,M,,*53
$GPGSV,3,1,12,16,67,219,24.4,27,62,292,42.8,23,49,103,25.1,18,40,061,32.8*7B
$GPGSV,3,2,12,10,37,149,37.7,26,35,176,39.2,08,29,288,46.8,07,15,320,41.2*75
$GPGSV,3,3,12,15,09,056,25.1,13,05,029,33.5,21,02,240,38.5,30,02,344,42.3*75
$GPRMC,000204.000,A,5138.7724,N,00636.4094,E,0.01,126.48,081221,,,A*6B
$GPRMC,000204.000,A,5138.7724,N,00636.4094,E,0.01,126.48,081221,,,A*6B
211208.log

$GPGGA,000205.000,5138.7724,N,00636.4094,E,1,10,0.96,22.3,M,47.4,M,,*52
$GPGSV,3,1,12,16,67,219,25.5,27,62,292,42.0,23,49,103,27.1,18,40,061,33.2*7A
$GPGSV,3,2,12,10,37,149,37.0,26,35,176,39.0,08,29,288,46.0,07,15,320,41.3*79
$GPGSV,3,3,12,15,09,056,25.8,13,05,029,33.6,21,02,240,38.4,30,02,344,42.5*78
$GPRMC,000205.000,A,5138.7724,N,00636.4094,E,0.02,126.48,081221,,,A*69
$GPRMC,000205.000,A,5138.7724,N,00636.4094,E,0.02,126.48,081221,,,A*69
211208.log

$GPGGA,000206.000,5138.7724,N,00636.4094,E,1,10,0.96,22.3,M,47.4,M,,*51
$GPGSV,3,1,12,16,67,219,24.2,27,62,292,41.9,23,49,103,25.0,18,40,061,33.2*75
$GPGSV,3,2,12,10,37,149,37.4,26,35,176,38.8,08,29,288,47.3,07,15,320,42.5*73
$GPGSV,3,3,12,15,09,056,25.4,13,05,029,33.8,21,02,240,38.6,30,02,344,42.6*7B
$GPRMC,000206.000,A,5138.7724,N,00636.4094,E,0.02,126.48,081221,,,A*6A
$GPRMC,000206.000,A,5138.7724,N,00636.4094,E,0.02,126.48,081221,,,A*6A
211208.log

$GPGGA,000207.000,5138.7724,N,00636.4094,E,1,10,0.96,22.3,M,47.4,M,,*50
$GPGSV,3,1,12,16,67,219,25.6,27,62,292,42.8,23,49,103,23.6,18,40,061,32.9*78
$GPGSV,3,2,12,10,37,149,37.0,26,35,176,38.5,08,29,288,48.3,07,15,320,41.5*76
$GPGSV,3,3,12,15,09,056,24.2,13,05,029,33.7,21,02,240,38.0,30,02,344,42.4*77
$GPRMC,000207.000,A,5138.7724,N,00636.4094,E,0.01,126.48,081221,,,A*68
$GPRMC,000207.000,A,5138.7724,N,00636.4094,E,0.01,126.48,081221,,,A*68
211208.log

$GPGGA,000208.000,5138.7724,N,00636.4094,E,1,10,0.96,22.3,M,47.4,M,,*5F
$GPGSV,3,1,12,16,67,219,25.6,27,62,292,42.1,23,49,103,25.4,18,40,061,32.9*75
$GPGSV,3,2,12,10,37,149,37.7,26,35,176,38.2,08,29,288,47.2,07,15,320,42.3*7D
$GPGSV,3,3,12,15,09,056,22.8,13,05,029,33.8,21,02,240,37.7,30,02,344,43.1*78
$GPRMC,000208.000,A,5138.7724,N,00636.4094,E,0.02,126.48,081221,,,A*64
$GPRMC,000208.000,A,5138.7724,N,00636.4094,E,0.02,126.48,081221,,,A*64
211208.log

$GPGGA,000209.000,5138.7724,N,00636.4094,E,1,10,0.96,22.3,M,47.4,M,,*5E
$GPGSV,3,1,12,16,67,219,25.3,27,62,292,42.2,23,49,103,28.1,18,40,061,33.0*73
$GPGSV,3,2,12,10,37,149,38.6,26,35,176,37.6,08,29,288,46.3,07,15,320,42.2*79
$GPGSV,3,3,12,15,09,056,25.0,13,05,029,33.7,21,02,240,37.3,30,02,344,43.2*7F
$GPRMC,000209.000,A,5138.7724,N,00636.4094,E,0.00,126.48,081221,,,A*67
$GPRMC,000209.000,A,5138.7724,N,00636.4094,E,0.00,126.48,081221,,,A*67
211208.log

$GPGGA,000210.000,5138.7724,N,00636.4094,E,1,10,0.96,22.3,M,47.4,M,,*56
$GPGSV,3,1,12,16,67,219,23.0,27,62,292,42.1,23,49,103,27.9,18,40,061,32.8*7B
$GPGSV,3,2,12,10,37,149,38.7,26,35,176,37.3,08,29,288,46.6,07,15,320,41.4*7D
$GPGSV,3,3,12,15,09,056,23.3,13,05,029,33.6,21,02,240,36.9,30,02,344,43.5*77
$GPRMC,000210.000,A,5138.7724,N,00636.4094,E,0.01,126.48,081221,,,A*6E
$GPRMC,000210.000,A,5138.7724,N,00636.4094,E,0.01,126.48,081221,,,A*6E
211208.log

$GPGGA,000211.000,5138.7724,N,00636.4094,E,1,10,0.96,22.3,M,47.4,M,,*57
$GPGSV,3,1,12,16,67,219,25.5,27,62,292,42.4,23,49,103,27.8,18,40,061,32.9*7D
$GPGSV,3,2,12,10,37,149,38.4,26,35,176,36.9,08,29,288,46.8,07,15,320,41.8*77
$GPGSV,3,3,12,15,09,056,21.9,13,05,029,33.3,21,02,240,35.7,30,02,344,43.6*74
$GPRMC,000211.000,A,5138.7724,N,00636.4094,E,0.00,126.48,081221,,,A*6E
$GPRMC,000211.000,A,5138.7724,N,00636.4094,E,0.00,126.48,081221,,,A*6E
211208.log

